.81,85.75,150115,,,A*5C
$GPGGA,121051.534,3018.0834,N,12006.7543,E,1,03,1.7,17.4,M,7.0,M,,0000*5D
$GPGSA,A,2,16,14,29,,,,,,,,,,2.0,1.7,1.0*3F
$GPRMC,121051.534,A,3018.0834,N,12006.7543,E,9.99,86.18,150115,,,A*50
$GPGGA,121052.534,3018.0835,N,12006.7581,E,1,03,1.7,17.4,M,7.0,M,,0000*51
$GPGSA,A,2,16,14,29,,,,,,,,,,2.0,1.7,1.0*3F
$GPRMC,121052.534,A,3018.0835,N,12006.7581,E,9.81,84.36,150115,,,A*5B
$GPGGA,121053.534,3018.0838,N,12006.7602,E,1,03,1.7,17.4,M,7.0,M,,0000*55
$GPGSA,A,2,16,14,29,,,,,,,,,,2.0,1.7,1.0*3F
$GPRMC,121053.534,A,3018.0838,N,12006.7602,E,9.61,86.81,150115,,,A*5F
$GPGGA,121054.534,3018.0836,N,12006.7636,E,1,03,1.7,17.4,M,7.0,M,,0000*5B
$GPGSA,A,2,16,14,29,,,,,,,,,,2.0,1.7,1.0*3F
$GPRMC,121054.534,A,3018.0836,N,12006.7636,E,10.67,91.91,150115,,,A*68
$GPGGA,121055.534,3018.0834,N,12006.7677,E,1,03,1.7,17.4,M,7.0,M,,0000*5D
$GPGSA,A,2,16,14,29,,,,,,,,,,2.0,1.7,1.0*3F
$GPGSV,3,1,10,16,46,243,33,14,38,140,40,29,25,053,39,31,54,035,47*73
$GPGSV,3,2,10,32,32,242,32,03,21,285,27,27,13,187,,23,09,318,*7D
$GPGSV,3,3,10,25,04,047,29,20,02,314,*75
$GPRMC,121055.534,A,3018.0834,N,12006.7677,E,11.23,93.11,150115,,,A*65
$GPGGA,121056.534,3018.0834,N,12006.7709,E,1,03,1.7,17.4,M,7.0,M,,0000*56
$GPGSA,A,2,16,14,29,,,,,,,,,,2.0,1.7,1.0*3F
$GPRMC,121056.534,A,3018.0834,N,12006.7709,E,12.03,91.19,150115,,,A*65
$GPGGA,121057.534,3018.0835,N,12006.7742,E,1,03,1.7,17.4,M,7.0,M,,0000*59
$GPGSA,A,2,16,14,29,,,,,,,,,,2.0,1.7,1.0*3F
$GPRMC,121057.534,A,3018.0835,N,12006.7742,E,12.27,88.88,150115,,,A*6C
$GPGGA,121058.534,3018.0838,N,12006.7770,E,1,03,1.7,17.4,M,7.0,M,,0000*5A
$GPGSA,A,2,16,14,29,,,,,,,,,,2.0,1.7,1.0*3F
$GPRMC,121058.534,A,3018.0838,N,12006.7770,E,10.32,86.64,150115,,,A*65
$GPGGA,121059.534,3018.0841,N,12006.7792,E,1,03,1.7,17.4,M,7.0,M,,0000*59
$GPGSA,A,2,16,14,29,,,,,,,,,,2.0,1.7,1.0*3F
$GPRMC,121059.534,A,3018.0841,N,12006.7792,E,9.63,86.83,150115,,,A*53
$GPGGA,121100.534,3018.0845,N,12006.7803,E,1,03,1.7,17.4,M,7.0,M,,0000*57
$GPGSA,A,2,16,14,29,,,,,,,,,,2.0,1.7,1.0*3F
$GPGSV,3,1,10,16,46,243,28,14,38,140,39,29,25,053,38,31,54,035,47*76
$GPGSV,3,2,10,32,32,242,31,03,21,285,33,27,13,187,,23,09,318,31*79
$GPGSV,3,3,10,25,04,047,27,20,02,314,*7B
$GPRMC,121100.534,A,3018.0845,N,12006.7803,E,9.02,86.29,150115,,,A*5A
$GPGGA,121101.534,3018.0841,N,12006.7861,E,1,03,1.7,17.4,M,7.0,M,,0000*56
$GPGSA,A,2,16,14,29,,,,,,,,,,2.0,1.7,1.0*3F
$GPRMC,121101.534,A,3018.0841,N,12006.7861,E,8.01,86.37,150115,,,A*56
$GPGGA,121102.534,3018.0842,N,12006.7870,E,1,03,1.7,17.4,M,7.0,M,,0000*56
$GPGSA,A,2,16,14,29,,,,,,,,,,2.0,1.7,1.0*3F
$GPRMC,121102.534,A,3018.0842,N,12006.7870,E,5.95,90.82,150115,,,A*5F
$GPGGA,121103.534,3018.0841,N,12006.7882,E,1,03,1.7,17.4,M,7.0,M,,0000*59
$GPGSA,A,2,16,14,29,,,,,,,,,,2.0,1.7,1.0*3F
$GPRMC,121103.534,A,3018.0841,N,12006.7882,E,3.53,93.03,150115,,,A*56
$GPGGA,121104.534,3018.0840,N,12006.7890,E,1,03,1.7,17.4,M,7.0,M,,0000*5C
$GPGSA,A,2,16,14,29,,,,,,,,,,2.0,1.7,1.0*3F
$GPRMC,121104.534,A,3018.0840,N,12006.7890,E,2.38,97.00,150115,,,A*58
$GPGGA,121105.534,3018.0837,N,12006.7903,E,1,03,1.7,17.4,M,7.0,M,,0000*56
$GPGSA,A,2,16,14,29,,,,,,,,,,2.0,1.7,1.0*3F
$GPGSV,3,1,10,16,46,243,35,14,38,140,39,29,25,053,35,31,54,035,47*77
$GPGSV,3,2,10,32,32,242,29,03,21,285,30,27,13,187,,23,09,318,32*70
$GPGSV,3,3,10,25,04,047,27,20,02,314,*7B
$GPRMC,121105.534,A,3018.0837,N,12006.7903,E,2.27,104.43,150115,,,A*60
$GPGGA,121106.534,3018.0835,N,12006.7909,E,1,03,1.7,17.4,M,7.0,M,,0000*5D
$GPGSA,A,2,16,14,29,,,,,,,,,,2.0,1.7,1.0*3F
$GPRMC,121106.534,A,3018.0835,N,12006.7909,E,2.20,105.49,150115,,,A*67
$GPGGA,121107.534,3018.0832,N,12006.7919,E,1,03,1.7,17.4,M,7.0,M,,0000*5A
$GPGSA,A,2,16,14,29,,,,,,,,,,2.0,1.7,1.0*3F
$GPRMC,121107.534,A,3018.0832,N,12006.7919,E,2.55,110.58,150115,,,A*66
$GPGGA,121108.534,3018.0826,N,12006.7931,E,1,03,1.7,17.4,M,7.0,M,,0000*5A
$GPGSA,A,2,16,14,29,,,,,,,,,,2.0,1.7,1.0*3F
$GPRMC,121108.534,A,3018.0826,N,12006.7931,E,3.28,121.33,150115,,,A*62
$GPGGA,121109.534,3018.0815,N,12006.7945,E,1,03,1.7,17.4,M,7.0,M,,0000*58
$GPGSA,A,2,16,14,29,,,,,,,,,,2.0,1.7,1.0*3F
$GPRMC,121109.534,A,3018.0815,N,12006.7945,E,5.16,134.49,150115,,,A*62
$GPGGA,121110.534,3018.0800,N,12006.7957,E,1,03,1.7,17.4,M,7.0,M,,0000*57
$GPGSA,A,2,16,14,29,,,,,,,,,,2.0,1.7,1.0*3F
$GPGSV,3,1,10,16,46,243,38,14,38,140,39,29,25,053,41,31,54,035,41*7F
$GPGSV,3,2,10,32,32,242,32,03,21,285,31,27,13,187,,23,09,318,31*78
$GPGSV,3,3,10,25,04,047,20,20,02,314,*7C
$GPRMC,121110.534,A,3018.0800,N,12006.7957,E,6.10,145.22,150115,,,A*63
$GPGGA,121111.534,3018.0785,N,12006.7968,E,1,03,1.7,17.4,M,7.0,M,,0000*58
$GPGSA,A,2,16,14,29,,,,,,,,,,2.0,1.7,1.0*3F
$GPRMC,121111.534,A,3018.0785,N,12006.7968,E,5.91,151.46,150115,,,A*61
$GPGGA,121112.534,3018.0771,N,12006.7976,E,1,03,1.7,17.4,M,7.0,M,,0000*5F
$GPGSA,A,2,16,14,29,,,,,,,,,,2.0,1.7,1.0*3F
$GPRMC,121112.534,A,3018.0771,N,12006.7976,E,5.40,154.50,150115,,,A*68
$GPGGA,121113.534,3018.0757,N,12006.7984,E,1,03,1.7,17.4,M,7.0,M,,0000*57
$GPGSA,A,2,16,14,29,,,,,,,,,,2.0,1.7,1.0*3F
$GPRMC,121113.534,A,3018.0757,N,12006.7984,E,5.06,156.16,150115,,,A*62
$GPGGA,121114.534,3018.0742,N,12006.7990,E,1,03,1.7,17.4,M,7.0,M,,0000*51
$GPGSA,A,2,16,14,29,,,,,,,,,,2.0,1.7,1.0*3F
$GPRMC,121114.534,A,3018.0742,N,12006.7990,E,5.37,160.58,150115,,,A*69
$GPGGA,121115.534,3018.0721,N,12006.7996,E,1,03,1.7,17.4,M,7.0,M,,0000*53
$GPGSA,A,2,16,14,29,,,,,,,,,,2.0,1.7,1.0*3F
$GPGSV,3,1,10,16,46,243,44,14,38,140,39,29,25,053,43,31,54,035,45*72
$GPGSV,3,2,10,32,32,241,35,03,21,285,33,27,13,187,,23,09,318,31*7E
$GPGSV,3,3,10,25,04,047,20,20,02,314,*7C
$GPRMC,121115.534,A,3018.0721,N,12006.7996,E,7.60,166.79,150115,,,A*6E
$GPGGA,121116.534,3018.0694,N,12006.8001,E,1,03,1.7,17.4,M,7.0,M,,0000*57
$GPGSA,A,2,16,14,29,,,,,,,,,,2.0,1.7,1.0*3F
$GPRMC,121116.534,A,3018.0694,N,12006.8001,E,9.69,173.11,150115,,,A*67
$GPGGA,121117.534,3018.0656,N,12006.8033,E,1,03,1.7,17.4,M,7.0,M,,0000*59
$GPGSA,A,2,16,14,29,,,,,,,,,,2.0,1.7,1.0*3F
$GPRMC,121117.534,A,3018.0656,N,12006.8033,E,11.72,173.11,150115,,,A*5A
$GPGGA,121118.534,3018.0625,N,12006.8005,E,1,03,1.7,17.4,M,7.0,M,,0000*57
$GPGSA,A,2,16,14,29,,,,,,,,,,2.0,1.7,1.0*3F
$GPRMC,121118.534,A,3018.0625,N,12006.8005,E,12.98,177.01,150115,,,A*56
$GPGGA,121119.534,3018.0584,N,12006.8017,E,1,03,1.7,17.4,M,7.0,M,,0000*5D
$GPGSA,A,2,16,14,29,,,,,,,,,,2.0,1.7,1.0*3F
$GPRMC,121119.534,A,3018.0584,N,12006.8017,E,14.25,175.35,150115,,,A*59
$GPGGA,121120.534,3018.0544,N,12006.8019,E,1,03,1.7,17.4,M,7.0,M,,0000*55
$GPGSA,A,2,16,14,29,,,,,,,,,,2.0,1.7,1.0*3F
$GPGSV,3,1,10,16,46,243,42,14,38,140,44,29,25,053,43,31,54,035,45*7E
$GPGSV,3,2,10,32,32,241,36,03,21,285,19,27,13,187,,23,09,318,20*75
$GPGSV,3,3,10,25,04,047,25,20,02,314,*79
$GPRMC,121120.534,A,3018.0544,N,12006.8019,E,14.32,174.71,150115,,,A*56
$GPGGA,121121.534,3018.0505,N,12006.8025,E,1,03,1.7,17.4,M,7.0,M,,0000*5E
$GPGSA,A,2,16,14,29,,,,,,,,,,2.0,1.7,1.0*3F
$GPRMC,121121.534,A,3018.0505,N,12006.8025,E,13.91,174.67,150115,,,A*54
$GPGGA,121122.534,3018.0464,N,12006.8029,E,1,03,1.7,17.4,M,7.0,M,,0000*57
$GPGSA,A,2,16,14,29,,,,,,,,,,2.0,1.7,1.0*3F
$GPRMC,121122.534,A,3018.0464,N,12006.8029,E,14.66,174.98,150115,,,A*52
$GPGGA,121123.534,3018.0419,N,12006.8033,E,1,03,1.7,17.4,M,7.0,M,,0000*57
$GPGSA,A,2,16,14,29,,,,,,,,,,2.0,1.7,1.0*3F
$GPRMC,121123.534,A,3018.0419,N,12006.8033,E,16.04,175.15,150115,,,A*50
$GPGGA,121124.534,3018.0372,N,12006.8038,E,1,03,1.7,17.4,M,7.0,M,,0000*51
$GPGSA,A,2,16,14,29,,,,,,,,,,2.0,1.7,1.0*3F
$GPRMC,121124.534,A,3018.0372,N,12006.8038,E,16.79,175.50,150115,,,A*5D
$GPGGA,121125.534,3018.0325,N,12006.8041,E,1,03,1.7,17.4,M,7.0,M,,0000*5C
$GPGSA,A,2,16,14,29,,,,,,,,,,2.0,1.7,1.0*3F
$GPGSV,3,1,10,16,46,243,42,14,38,140,43,29,25,053,43,31,54,035,45*79
$GPGSV,3,2,10,32,32,241,36,03,21,285,24,27,13,187,,23,09,318,19*71
$GPGSV,3,3,10,25,04,047,24,20,02,314,*78
$GPRMC,121125.534,A,3018.0325,N,12006.8041,E,17.07,176.07,150115,,,A*59
$GPGGA,121126.534,3018.0277,N,12006.8044,E,1,03,1.7,17.4,M,7.0,M,,0000*5C
$GPGSA,A,2,16,14,29,,,,,,,,,,2.0,1.7,1.0*3F
$GPRMC,121126.534,A,3018.0277,N,12006.8044,E,17.19,176.17,150115,,,A*57
$GPGGA,121127.534,3018.0228,N,12006.8048,E,1,03,1.7,17.4,M,7.0,M,,0000*5B
$GPGSA,A,2,16,14,29,,,,,,,,,,2.0,1.7,1.0*3F
$GPRMC,121127.534,A,3018.0228,N,12006.8048,E,17.47,175.90,150115,,,A*57
$GPGGA,121128.534,3018.0178,N,12006.8052,E,1,03,1.7,17.4,M,7.0,M,,0000*59
$GPGSA,A,2,16,14,29,,,,,,,,,,2.0,1.7,1.0*3F
$GPRMC,121128.534,A,3018.0178,N,12006.8052,E,18.10,175.71,150115,,,A*57
$GPGGA,121129.534,3018.0127,N,12006.8056,E,1,03,1.7,17.4,M,7.0,M,,0000*56
$GPGSA,A,2,16,14,29,,,,,,,,,,2.0,1.7,1.0*3F
$GPRMC,121129.534,A,3018.0127,N,12006.8056,E,18.16,175.64,150115,,,A*5A
$GPGGA,121130.534,3018.0077,N,12006.8060,E,1,03,1.7,17.4,M,7.0,M,,0000*5F
$GPGSA,A,2,16,14,29,,,,,,,,,,2.0,1.7,1.0*3F
$GPGSV,3,1,10,16,46,243,42,14,38,140,42,29,25,053,43,31,54,035,45*78
$GPGSV,3,2,10,32,32,241,36,03,21,285,25,27,13,187,25,23,09,318,24*79
$GPGSV,3,3,10,25,04,047,25,20,02,314,*79
$GPRMC,121130.534,A,3018.0077,N,12006.8060,E,18.02,175.84,150115,,,A*58
$GPGGA,121131.534,3018.0028,N,12006.8065,E,1,03,1.7,17.4,M,7.0,M,,0000*51
$GPGSA,A,2,16,14,29,,,,,,,,,,2.0,1.7,1.0*3F
$GPRMC,121131.534,A,3018.0028,N,12006.8065,E,17.33,176.09,150115,,,A*5D
$GPGGA,121132.534,3017.9980,N,12006.8069,E,1,03,1.7,17.4,M,7.0,M,,0000*53
$GPGSA,A,2,16,14,29,,,,,,,,,,2.0,1.7,1.0*3F
$GPRMC,121132.534,A,3017.9980,N,12006.8069,E,17.24,176.30,150115,,,A*53
$GPGGA,121133.534,3017.9933,N,12006.8072,E,1,03,1.7,17.4,M,7.0,M,,0000*50
$GPGSA,A,2,16,14,29,,,,,,,,,,2.0,1.7,1.0*3F
$GPRMC,121133.534,A,3017.9933,N,12006.8072,E,16.82,176.47,150115,,,A*5D
$GPGGA,121134.534,3017.9887,N,12006.8075,E,1,03,1.7,17.4,M,7.0,M,,0000*5E
$GPGSA,A,2,16,14,29,,,,,,,,,,2.0,1.7,1.0*3F
$GPRMC,121134.534,A,3017.9887,N,12006.8075,E,16.51,176.48,150115,,,A*52
$GPGGA,121135.534,3017.9840,N,12006.8078,E,1,03,1.7,17.4,M,7.0,M,,0000*59
$GPGSA,A,2,16,14,29,,,,,,,,,,2.0,1.7,1.0*3F
$GPGSV,3,1,10,16,46,243,41,14,38,140,42,29,25,053,36,31,54,035,45*79
$GPGSV,3,2,10,32,32,241,32,03,21,285,35,27,13,187,24,23,09,318,25*7C
$GPGSV,3,3,10,25,04,047,16,20,02,314,*79
$GPRMC,121135.534,A,3017.9840,N,12006.8078,E,16.63,176.47,150115,,,A*5B
$GPGGA,121136.534,3017.9712,N,12006.8057,E,1,03,1.7,17.4,M,7.0,M,,0000*5F
$GPGSA,A,2,16,14,29,,,,,,,,,,2.0,1.7,1.0*3F
$GPRMC,121136.534,A,3017.9712,N,12006.8057,E,16.50,175.52,150115,,,A*5A
$GPGGA,121137.534,3017.9555,N,12006.8028,E,1,03,1.7,17.4,M,7.0,M,,0000*57
$GPGSA,A,2,16,14,29,,,,,,,,,,2.0,1.7,1.0*3F
$GPRMC,121137.534,A,3017.9555,N,12006.8028,E,12.44,167.26,150115,,,A*53
$GPGGA,121138.534,3017.9441,N,12006.8023,E,1,03,1.7,17.4,M,7.0,M,,0000*57
$GPGSA,A,2,16,14,29,,,,,,,,,,2.0,1.7,1.0*3F
$GPRMC,121138.534,A,3017.9441,N,12006.8023,E,7.47,115.99,150115,,,A*65
$GPGGA,121139.534,,,,,0,00,,,M,0.0,M,,0000*5D
$GPGSA,A,1,,,,,,,,,,,,,,,*1E
$GPRMC,121139.534,V,,,,,,,150115,,,N*47
$GPGGA,121140.534,,,,,0,00,,,M,0.0,M,,0000*53
$GPGSA,A,1,,,,,,,,,,,,,,,*1E
$GPGSV,3,1,10,16,47,243,16,14,38,140,41,29,25,053,42,31,54,036,45*79
$GPGSV,3,2,10,32,32,241,22,03,21,284,17,27,13,187,,23,09,318,26*79
$GPGSV,3,3,10,25,04,047,18,20,02,313,*70
$GPRMC,121140.534,V,,,,,,,150115,,,N*49
$GPGGA,121141.534,,,,,0,00,,,M,0.0,M,,0000*52
$GPGSA,A,1,,,,,,,,,,,,,,,*1E
$GPRMC,121141.534,V,,,,,,,150115,,,N*48
$GPGGA,121142.534,3017.9448,N,12006.8112,E,1,03,1.7,17.4,M,7.0,M,,0000*50
$GPGSA,A,2,16,14,29,,,,,,,,,,2.0,1.7,1.0*3F
$GPRMC,121142.534,A,3017.9448,N,12006.8112,E,20.44,179.73,150115,,,A*5A
$GPGGA,121143.534,3017.9391,N,12006.8091,E,1,03,1.7,17.4,M,7.0,M,,0000*58
$GPGSA,A,2,16,14,29,,,,,,,,,,2.0,1.7,1.0*3F
$GPRMC,121143.534,A,3017.9391,N,12006.8091,E,20.76,178.90,150115,,,A*5F
$GPGGA,121144.534,3017.9336,N,12006.8106,E,1,03,1.7,17.4,M,7.0,M,,0000*5D
$GPGSA,A,2,16,14,29,,,,,,,,,,2.0,1.7,1.0*3F
$GPRMC,121144.534,A,3017.9336,N,12006.8106,E,20.44,178.38,150115,,,A*59
$GPGGA,121145.534,3017.9269,N,12006.8118,E,1,03,1.7,17.4,M,7.0,M,,0000*58
$GPGSA,A,2,16,14,29,,,,,,,,,,2.0,1.7,1.0*3F
$GPGSV,3,1,10,16,47,243,42,14,38,140,39,29,25,053,40,31,54,036,42*72
$GPGSV,3,2,10,32,32,241,36,03,21,284,,27,13,187,21,23,09,318,*7D
$GPGSV,3,3,10,25,04,047,18,20,02,313,*70
$GPRMC,121145.534,A,3017.9269,N,12006.8118,E,18.90,179.73,150115,,,A*50
$GPGGA,121146.534,3017.9204,N,12006.8127,E,1,03,1.7,17.4,M,7.0,M,,0000*5C
$GPGSA,A,2,16,14,29,,,,,,,,,,2.0,1.7,1.0*3F
$GPRMC,121146.534,A,3017.9204,N,12006.8127,E,21.46,175.67,150115,,,A*5C
$GPGGA,121147.534,3017.9145,N,12006.8134,E,1,03,1.7,17.4,M,7.0,M,,0000*59
$GPGSA,A,2,16,14,29,,,,,,,,,,2.0,1.7,1.0*3F
$GPRMC,121147.534,A,3017.9145,N,12006.8134,E,21.50,175.74,150115,,,A*5C
$GPGGA,121148.534,3017.9085,N,12006.8137,E,1,03,1.7,17.4,M,7.0,M,,0000*58
$GPGSA,A,2,16,14,29,,,,,,,,,,2.0,1.7,1.0*3F
$GPRMC,121148.534,A,3017.9085,N,12006.8137,E,21.41,176.20,150115,,,A*5F
$GPGGA,121149.534,3017.9027,N,12006.8139,E,1,03,1.7,17.4,M,7.0,M,,0000*5F
$GPGSA,A,2,16,14,29,,,,,,,,,,2.0,1.7,1.0*3F
$GPRMC,121149.534,A,3017.9027,N,12006.8139,E,21.21,176.41,150115,,,A*59
$GPGGA,121150.534,3017.8969,N,12006.8142,E,1,03,1.7,17.4,M,7.0,M,,0000*59
$GPGSA,A,2,16,14,29,,,,,,,,,,2.0,1.7,1.0*3F
$GPGSV,3,1,10,16,47,243,42,14,38,140,41,29,25,053,41,31,54,036,44*7A
$GPGSV,3,2,10,32,32,241,36,03,21,284,,27,13,187,21,23,09,318,*7D
$GPGSV,3,3,10,25,04,047,23,20,02,313,*78
$GPRMC,121150.534,A,3017.8969,N,12006.8142,E,21.08,176.25,150115,,,A*56
$GPGGA,121151.534,3017.8912,N,12006.8146,E,1,03,1.7,17.4,M,7.0,M,,0000*50
$GPGSA,A,2,16,14,29,,,,,,,,,,2.0,1.7,1.0*3F
$GPRMC,121151.534,A,3017.8912,N,12006.8146,E,21.50,176.30,150115,,,A*56
$GPGGA,121152.534,3017.8852,N,12006.8151,E,1,03,1.7,17.4,M,7.0,M,,0000*50
$GPGSA,A,2,16,14,29,,,,,,,,,,2.0,1.7,1.0*3F
$GPRMC,121152.534,A,3017.8852,N,12006.8151,E,21.90,176.03,150115,,,A*5A
$GPGGA,121153.534,3017.8791,N,12006.8156,E,1,03,1.7,17.4,M,7.0,M,,0000*56
$GPGSA,A,2,16,14,29,,,,,,,,,,2.0,1.7,1.0*3F
$GPRMC,121153.534,A,3017.8791,N,12006.8156,E,22.39,176.53,150115,,,A*59
$GPGGA,121154.534,3017.8728,N,12006.8160,E,1,03,1.7,17.4,M,7.0,M,,0000*56
$GPGSA,A,2,16,14,29,,,,,,,,,,2.0,1.7,1.0*3F
$GPRMC,121154.534,A,3017.8728,N,12006.8160,E,22.35,175.98,150115,,,A*51
$GPGGA,121155.534,3017.8668,N,12006.8164,E,1,03,1.7,17.4,M,7.0,M,,0000*56
$GPGSA,A,2,16,14,29,,,,,,,,,,2.0,1.7,1.0*3F
$GPGSV,3,1,10,16,47,243,42,14,38,140,41,29,25,053,41,31,54,036,45*7B
$GPGSV,3,2,10,32,32,241,36,03,21,284,25,27,13,187,21,23,09,318,21*79
$GPGSV,3,3,10,25,04,047,16,20,02,313,*7E
$GPRMC,121155.534,A,3017.8668,N,12006.8164,E,21.86,175.42,150115,,,A*5D
$GPGGA,121156.534,3017.8606,N,12006.8170,E,1,03,1.7,17.4,M,7.0,M,,0000*58
$GPGSA,A,2,16,14,29,,,,,,,,,,2.0,1.7,1.0*3F
$GPRMC,121156.534,A,3017.8606,N,12006.8170,E,22.37,175.63,150115,,,A*59
$GPGGA,121157.534,3017.8541,N,12006.8173,E,1,03,1.7,17.4,M,7.0,M,,0000*5A
$GPGSA,A,2,16,14,29,,,,,,,,,,2.0,1.7,1.0*3F
$GPRMC,121157.534,A,3017.8541,N,12006.8173,E,23.52,176.90,150115,,,A*56
$GPGGA,121158.534,3017.8473,N,12006.8176,E,1,03,1.7,17.4,M,7.0,M,,0000*50
$GPGSA,A,2,16,14,29,,,,,,,,,,2.0,1.7,1.0*3F
$GPRMC,121158.534,A,3017.8473,N,12006.8176,E,24.42,178.21,150115,,,A*5E
$GPGGA,121159.534,3017.8404,N,12006.8177,E,1,03,1.7,17.4,M,7.0,M,,0000*50
$GPGSA,A,2,16,14,29,,,,,,,,,,2.0,1.7,1.0*3F
$GPRMC,121159.534,A,3017.8404,N,12006.8177,E,24.66,178.71,150115,,,A*5D
$GPGGA,121200.534,3017.8338,N,12006.8178,E,1,03,1.7,17.4,M,7.0,M,,0000*58
$GPGSA,A,2,16,14,29,,,,,,,,,,2.0,1.7,1.0*3F
$GPGSV,3,1,10,16,47,243,42,14,38,140,41,29,25,053,41,31,54,036,45*7B
$GPGSV,3,2,10,32,32,241,36,03,21,284,29,27,13,187,33,23,09,318,*75
$GPGSV,3,3,10,25,04,047,14,20,02,313,*7C
$GPRMC,121200.534,A,3017.8338,N,12006.8178,E,23.88,178.86,150115,,,A*5A
$GPGGA,121201.534,3017.8277,N,12006.8178,E,1,03,1.7,17.4,M,7.0,M,,0000*53
$GPGSA,A,2,16,14,29,,,,,,,,,,2.0,1.7,1.0*3F
$GPRMC,121201.534,A,3017.8277,N,12006.8178,E,22.13,179.29,150115,,,A*56
$GPGGA,121202.534,3017.8219,N,12006.8179,E,1,03,1.7,17.4,M,7.0,M,,0000*59
$GPGSA,A,2,16,14,29,,,,,,,,,,2.0,1.7,1.0*3F
$GPRMC,121202.534,A,3017.8219,N,12006.8179,E,20.83,178.80,150115,,,A*55
$GPGGA,121203.534,3017.8163,N,12006.8180,E,1,03,1.7,17.4,M,7.0,M,,0000*50
$GPGSA,A,2,16,14,29,,,,,,,,,,2.0,1.7,1.0*3F
$GPRMC,121203.534,A,3017.8163,N,12006.8180,E,20.01,178.47,150115,,,A*5D
$GPGGA,121204.534,3017.8107,N,12006.8183,E,1,03,1.7,17.4,M,7.0,M,,0000*56
$GPGSA,A,2,16,14,29,,,,,,,,,,2.0,1.7,1.0*3F
$GPRMC,121204.534,A,3017.8107,N,12006.8183,E,20.25,177.72,150115,,,A*54
$GPGGA,121205.534,3017.8051,N,12006.8185,E,1,03,1.7,17.4,M,7.0,M,,0000*53
$GPGSA,A,2,16,14,29,,,,,,,,,,2.0,1.7,1.0*3F
$GPGSV,3,1,10,16,47,243,41,14,38,140,41,29,25,053,41,31,54,036,44*79
$GPGSV,3,2,10,32,32,241,36,03,21,284,27,27,13,187,28,23,09,318,27*74
$GPGSV,3,3,10,25,04,047,,20,02,313,*79
$GPRMC,121205.534,A,3017.8051,N,12006.8185,E,20.05,177.63,150115,,,A*53
$GPGGA,121206.534,3017.7997,N,12006.8188,E,1,03,1.7,17.4,M,7.0,M,,0000*51
$GPGSA,A,2,16,14,29,,,,,,,,,,2.0,1.7,1.0*3F
$GPRMC,121206.534,A,3017.7997,N,12006.8188,E,19.40,177.12,150115,,,A*5C
$GPGGA,121207.534,3017.7950,N,12006.8191,E,1,03,1.7,17.4,M,7.0,M,,0000*53
$GPGSA,A,2,16,14,29,,,,,,,,,,2.0,1.7,1.0*3F
$GPRMC,121207.534,A,3017.7950,N,12006.8191,E,17.08,176.09,150115,,,A*57
$GPGGA,121208.534,3017.7911,N,12006.8195,E,1,03,1.7,17.4,M,7.0,M,,0000*5D
$GPGSA,A,2,16,14,29,,,,,,,,,,2.0,1.7,1.0*3F
$GPRMC,121208.534,A,3017.7911,N,12006.8195,E,14.10,175.49,150115,,,A*54
$GPGGA,121209.534,3017.7878,N,12006.8192,E,1,03,1.7,17.4,M,7.0,M,,0000*55
$GPGSA,A,2,16,14,29,,,,,,,,,,2.0,1.7,1.0*3F
$GPRMC,121209.534,A,3017.7878,N,12006.8192,E,11.81,183.82,150115,,,A*5F
$GPGGA,121210.534,3017.7852,N,12006.8179,E,1,03,1.7,17.4,M,7.0,M,,0000*50
$GPGSA,A,2,16,14,29,,,,,,,,,,2.0,1.7,1.0*3F
$GPGSV,3,1,10,16,47,244,42,14,37,141,41,29,25,053,41,31,54,036,45*72
$GPGSV,3,2,10,32,31,241,36,03,21,284,31,27,13,187,32,23,09,318,34*79
$GPGSV,3,3,10,25,03,047,,20,02,313,*7E
$GPRMC,121210.534,A,3017.7852,N,12006.8179,E,10.43,202.32,150115,,,A*54
$GPGGA,121211.534,3017.7829,N,12006.8155,E,1,03,1.7,17.4,M,7.0,M,,0000*53
$GPGSA,A,2,16,14,29,,,,,,,,,,2.0,1.7,1.0*3F
$GPRMC,121211.534,A,3017.7829,N,12006.8155,E,10.73,221.96,150115,,,A*5B
$GPGGA,121212.534,3017.7814,N,12006.8126,E,1,03,1.7,17.4,M,7.0,M,,0000*5A
$GPGSA,A,2,16,14,29,,,,,,,,,,2.0,1.7,1.0*3F
$GPRMC,121212.534,A,3017.7814,N,12006.8126,E,10.46,238.26,150115,,,A*57
$GPGGA,121213.534,3017.7806,N,12006.8095,E,1,03,1.7,17.4,M,7.0,M,,0000*51
$GPGSA,A,2,16,14,29,,,,,,,,,,2.0,1.7,1.0*3F
$GPRMC,121213.534,A,3017.7806,N,12006.8095,E,10.39,252.93,150115,,,A*56
$GPGGA,121214.534,3017.7803,N,12006.8057,E,1,03,1.7,17.4,M,7.0,M,,0000*5D
$GPGSA,A,2,16,14,29,,,,,,,,,,2.0,1.7,1.0*3F
$GPRMC,121214.534,A,3017.7803,N,12006.8057,E,11.90,264.29,150115,,,A*5C
$GPGGA,121215.534,3017.7799,N,12006.8012,E,1,03,1.7,17.4,M,7.0,M,,0000*51
$GPGSA,A,2,16,14,29,,,,,,,,,,2.0,1.7,1.0*3F
$GPGSV,3,1,10,16,47,244,43,14,37,141,44,29,25,053,33,31,54,036,38*79
$GPGSV,3,2,10,32,31,241,36,03,21,284,34,27,13,187,24,23,09,318,22*7C
$GPGSV,3,3,10,25,03,047,,20,02,313,*7E
$GPRMC,121215.534,A,3017.7799,N,12006.8012,E,14.00,265.54,150115,,,A*57
$GPGGA,121216.534,3017.7802,N,12006.7961,E,1,03,1.7,17.4,M,7.0,M,,0000*5D
$GPGSA,A,2,16,14,29,,,,,,,,,,2.0,1.7,1.0*3F
$GPRMC,121216.534,A,3017.7802,N,12006.7961,E,16.41,266.78,150115,,,A*51
$GPGGA,121217.534,3017.7783,N,12006.7895,E,1,03,1.7,17.4,M,7.0,M,,0000*50
$GPGSA,A,2,16,14,29,,,,,,,,,,2.0,1.7,1.0*3F
$GPRMC,121217.534,A,3017.7783,N,12006.7895,E,18.89,264.87,150115,,,A*54
$GPGGA,121218.534,3017.7777,N,12006.7829,E,1,03,1.7,17.4,M,7.0,M,,0000*53
$GPGSA,A,2,16,14,29,,,,,,,,,,2.0,1.7,1.0*3F
$GPRMC,121218.534,A,3017.7777,N,12006.7829,E,20.65,264.84,150115,,,A*5D
$GPGGA,121219.534,3017.7773,N,12006.7758,E,1,03,1.7,17.4,M,7.0,M,,0000*5F
$GPGSA,A,2,16,14,29,,,,,,,,,,2.0,1.7,1.0*3F
$GPRMC,121219.534,A,3017.7773,N,12006.7758,E,22.19,264.52,150115,,,A*53
$GPGGA,121220.534,3017.7764,N,12006.7684,E,1,03,1.7,17.4,M,7.0,M,,0000*53
$GPGSA,A,2,16,14,29,,,,,,,,,,2.0,1.7,1.0*3F
$GPGSV,3,1,10,16,47,244,44,14,37,141,45,29,25,053,32,31,54,036,37*71
$GPGSV,3,2,10,32,31,241,36,03,21,284,34,27,13,187,31,23,09,318,22*78
$GPGSV,3,3,10,25,03,047,,20,02,313,*7E
$GPRMC,121220.534,A,3017.7764,N,12006.7684,E,22.89,264.15,150115,,,A*55
$GPGGA,121221.534,3017.7755,N,12006.7611,E,1,03,1.7,17.4,M,7.0,M,,0000*5C
$GPGSA,A,2,16,14,29,,,,,,,,,,2.0,1.7,1.0*3F
$GPRMC,121221.534,A,3017.7755,N,12006.7611,E,22.43,264.38,150115,,,A*53
$GPGGA,121222.534,3017.7750,N,12006.7540,E,1,03,1.7,17.4,M,7.0,M,,0000*5D
$GPGSA,A,2,16,14,29,,,,,,,,,,2.0,1.7,1.0*3F
$GPRMC,121222.534,A,3017.7750,N,12006.7540,E,22.29,264.64,150115,,,A*57
$GPGGA,121223.534,3017.7743,N,12006.7465,E,1,03,1.7,17.4,M,7.0,M,,0000*58
$GPGSA,A,2,16,14,29,,,,,,,,,,2.0,1.7,1.0*3F
$GPRMC,121223.534,A,3017.7743,N,12006.7465,E,23.18,264.69,150115,,,A*5C
$GPGGA,121224.534,3017.7733,N,12006.7386,E,1,03,1.7,17.4,M,7.0,M,,0000*52
$GPGSA,A,2,16,14,29,,,,,,,,,,2.0,1.7,1.0*3F
$GPRMC,121224.534,A,3017.7733,N,12006.7386,E,24.31,264.32,150115,,,A*54
$GPGGA,121225.534,3017.7724,N,12006.7306,E,1,03,1.7,17.4,M,7.0,M,,0000*5D
$GPGSA,A,2,16,14,29,,,,,,,,,,2.0,1.7,1.0*3F
$GPGSV,3,1,10,16,47,244,45,14,37,141,46,29,25,053,32,31,54,036,37*73
$GPGSV,3,2,10,32,31,241,36,03,21,284,35,27,13,187,17,23,09,318,14*78
$GPGSV,3,3,10,25,03,047,,20,02,313,*7E
$GPRMC,121225.534,A,3017.7724,N,12006.7306,E,24.88,264.14,150115,,,A*5D
$GPGGA,121226.534,3017.7717,N,12006.7225,E,1,03,1.7,17.4,M,7.0,M,,0000*5E
$GPGSA,A,2,16,14,29,,,,,,,,,,2.0,1.7,1.0*3F
$GPRMC,121226.534,A,3017.7717,N,12006.7225,E,25.22,263.95,150115,,,A*51
$GPGGA,121227.534,3017.7710,N,12006.7144,E,1,03,1.7,17.4,M,7.0,M,,0000*5C
$GPGSA,A,2,16,14,29,,,,,,,,,,2.0,1.7,1.0*3F
$GPRMC,121227.534,A,3017.7710,N,12006.7144,E,25.36,263.93,150115,,,A*50
$GPGGA,121228.534,3017.7702,N,12006.7062,E,1,03,1.7,17.4,M,7.0,M,,0000*55
$GPGSA,A,2,16,14,29,,,,,,,,,,2.0,1.7,1.0*3F
$GPRMC,121228.534,A,3017.7702,N,12006.7062,E,25.65,264.08,150115,,,A*5A
$GPGGA,121229.534,3017.7694,N,12006.6980,E,1,03,1.7,17.4,M,7.0,M,,0000*5E
$GPGSA,A,2,16,14,29,,,,,,,,,,2.0,1.7,1.0*3F
$GPRMC,121229.534,A,3017.7694,N,12006.6980,E,25.56,264.05,150115,,,A*5C
$GPGGA,121230.534,3017.7688,N,12006.6898,E,1,03,1.7,17.4,M,7.0,M,,0000*53
$GPGSA,A,2,16,14,29,,,,,,,,,,2.0,1.7,1.0*3F
$GPGSV,3,1,10,16,47,244,45,14,37,141,46,29,25,053,32,31,54,036,37*73
$GPGSV,3,2,10,32,31,241,37,03,21,284,35,27,13,187,36,23,09,318,*7F
$GPGSV,3,3,10,25,03,047,,20,02,313,*7E
$GPRMC,121230.534,A,3017.7688,N,12006.6898,E,25.47,265.06,150115,,,A*53
$GPGGA,121231.534,3017.7683,N,12006.6816,E,1,03,1.7,17.4,M,7.0,M,,0000*5F
$GPGSA,A,2,16,14,29,,,,,,,,,,2.0,1.7,1.0*3F
$GPRMC,121231.534,A,3017.7683,N,12006.6816,E,25.49,266.27,150115,,,A*51
$GPGGA,121232.534,3017.7666,N,12006.6718,E,1,04,2.0,-1.6,M,7.0,M,,0000*4D
$GPGSA,A,3,16,14,29,03,,,,,,,,,6.0,2.0,5.7*3E
$GPRMC,121232.534,A,3017.7666,N,12006.6718,E,25.41,266.97,150115,,,A*5B
$GPGGA,121233.534,3017.7661,N,12006.6637,E,1,04,2.0,-1.9,M,7.0,M,,0000*48
$GPGSA,A,3,16,14,29,03,,,,,,,,,6.0,2.0,5.7*3E
$GPRMC,121233.534,A,3017.7661,N,12006.6637,E,25.21,266.74,150115,,,A*5A
$GPGGA,121234.534,3017.7656,N,12006.6556,E,1,04,2.0,-2.2,M,7.0,M,,0000*47
$GPGSA,A,3,16,14,29,03,,,,,,,,,6.0,2.0,5.7*3E
$GPRMC,121234.534,A,3017.7656,N,12006.6556,E,25.12,266.52,150115,,,A*59
$GPGGA,121235.000,3017.7655,N,12006.6519,E,1,04,2.0,-2.2,M,7.0,M,,0000*4C
$GPGSA,A,3,16,14,29,03,,,,,,,,,6.0,2.0,5.7*3E
$GPGSV,3,1,10,16,47,244,45,14,37,141,46,29,25,053,27,03,21,284,35*7D
$GPGSV,3,2,10,31,54,036,37,32,31,241,38,27,13,187,37,23,10,318,20*71
$GPGSV,3,3,10,25,03,047,,20,02,313,*7E
$GPRMC,121235.000,A,3017.7655,N,12006.6519,E,24.89,266.65,150115,,,A*55
$GPGGA,121236.000,3017.7650,N,12006.6440,E,1,04,2.0,-2.3,M,7.0,M,,0000*46
$GPGSA,A,3,16,14,29,03,,,,,,,,,6.0,2.0,5.7*3E
$GPRMC,121236.000,A,3017.7650,N,12006.6440,E,24.52,266.01,150115,,,A*5A
$GPGGA,121237.000,3017.7645,N,12006.6362,E,1,04,2.0,-2.5,M,7.0,M,,0000*42
$GPGSA,A,3,16,14,29,03,,,,,,,,,6.0,2.0,5.7*3E
$GPRMC,121237.000,A,3017.7645,N,12006.6362,E,24.31,265.24,150115,,,A*59
$GPGGA,121238.000,3017.7638,N,12006.6284,E,1,04,2.0,-2.5,M,7.0,M,,0000*4E
$GPGSA,A,3,16,14,29,03,,,,,,,,,6.0,2.0,5.7*3E
$GPRMC,121238.000,A,3017.7638,N,12006.6284,E,24.61,264.71,150115,,,A*51
$GPGGA,121239.000,3017.7633,N,12006.6204,E,1,04,2.0,-2.4,M,7.0,M,,0000*4D
$GPGSA,A,3,16,14,29,03,,,,,,,,,6.0,2.0,5.7*3E
$GPRMC,121239.000,A,3017.7633,N,12006.6204,E,24.90,266.25,150115,,,A*5E
$GPGGA,121240.000,3017.7631,N,12006.6123,E,1,04,2.0,-2.2,M,7.0,M,,0000*41
$GPGSA,A,3,16,14,29,03,,,,,,,,,6.0,2.0,5.7*3E
$GPGSV,3,1,10,16,47,244,45,14,37,141,45,29,25,053,28,03,21,284,36*72
$GPGSV,3,2,10,31,54,036,37,32,31,241,37,27,13,187,37,23,10,318,22*7C
$GPGSV,3,3,10,25,03,047,,20,02,313,*7E
$GPRMC,121240.000,A,3017.7631,N,12006.6123,E,25.74,267.92,150115,,,A*52
$GPGGA,121241.000,3017.7631,N,12006.6040,E,1,04,2.0,-1.6,M,7.0,M,,0000*43
$GPGSA,A,3,16,14,29,03,,,,,,,,,6.0,2.0,5.6*3F
$GPRMC,121241.000,A,3017.7631,N,12006.6040,E,26.43,268.36,150115,,,A*51
$GPGGA,121242.000,3017.7631,N,12006.5956,E,1,04,2.0,-1.1,M,7.0,M,,0000*4A
$GPGSA,A,3,16,14,29,03,,,,,,,,,6.0,2.0,5.6*3F
$GPRMC,121242.000,A,3017.7631,N,12006.5956,E,26.63,269.74,150115,,,A*5A
$GPGGA,121243.000,3017.7631,N,12006.5868,E,1,04,2.0,-2.0,M,7.0,M,,0000*45
$GPGSA,A,3,16,14,29,03,,,,,,,,,6.0,2.0,5.6*3F
$GPRMC,121243.000,A,3017.7631,N,12006.5868,E,27.04,269.02,150115,,,A*56
$GPGGA,121244.000,3017.7626,N,12006.5780,E,1,04,2.0,-2.2,M,7.0,M,,0000*4F
$GPGSA,A,3,16,14,29,03,,,,,,,,,6.0,2.0,5.6*3F
$GPRMC,121244.000,A,3017.7626,N,12006.5780,E,27.10,268.83,150115,,,A*53
$GPGGA,121245.000,3017.7626,N,12006.5694,E,1,04,2.0,-0.6,M,7.0,M,,0000*4C
$GPGSA,A,3,16,14,29,03,,,,,,,,,6.0,2.0,5.6*3F
$GPGSV,3,1,10,31,54,037,39,16,47,244,46,14,37,141,45,32,31,241,41*76
$GPGSV,3,2,10,29,25,053,16,03,21,284,20,27,13,187,37,23,10,318,21*7C
$GPGSV,3,3,10,25,03,047,,20,02,313,*7E
$GPRMC,121245.000,A,3017.7626,N,12006.5694,E,27.12,268.67,150115,,,A*5E
$GPGGA,121246.000,3017.7626,N,12006.5609,E,1,04,1.9,2.1,M,7.0,M,,0000*69
$GPGSA,A,3,16,14,29,03,,,,,,,,,6.0,1.9,5.6*35
$GPRMC,121246.000,A,3017.7626,N,12006.5609,E,26.85,267.85,150115,,,A*55
$GPGGA,121247.000,3017.7624,N,12006.5524,E,1,04,1.9,2.1,M,7.0,M,,0000*66
$GPGSA,A,3,16,14,29,03,,,,,,,,,6.0,1.9,5.6*35
$GPRMC,121247.000,A,3017.7624,N,12006.5524,E,26.40,268.94,150115,,,A*5C
$GPGGA,121248.000,3017.7623,N,12006.5439,E,1,04,1.9,1.4,M,7.0,M,,0000*65
$GPGSA,A,3,16,14,29,03,,,,,,,,,5.9,1.9,5.6*3F
$GPRMC,121248.000,A,3017.7623,N,12006.5439,E,25.91,270.72,150115,,,A*57
$GPGGA,121249.000,3017.7625,N,12006.5357,E,1,03,4.2,0.9,M,7.0,M,,0000*68
$GPGSA,A,2,16,14,03,,,,,,,,,,4.4,4.2,1.0*35
$GPRMC,121249.000,A,3017.7625,N,12006.5357,E,25.02,271.36,150115,,,A*54
$GPGGA,121250.000,3017.7627,N,12006.5278,E,1,03,4.2,0.5,M,7.0,M,,0000*62
$GPGSA,A,2,16,14,03,,,,,,,,,,4.4,4.2,1.0*35
$GPGSV,3,1,10,31,54,037,40,16,47,244,47,14,37,141,44,32,31,241,43*7A
$GPGSV,3,2,10,29,25,053,18,03,21,284,33,27,13,187,37,23,10,318,20*71
$GPGSV,3,3,10,25,03,047,,20,02,313,*7E
$GPRMC,121250.000,A,3017.7627,N,12006.5278,E,23.91,270.96,150115,,,A*55
$GPGGA,121251.000,3017.7622,N,12006.5202,E,1,04,1.9,1.6,M,7.0,M,,0000*60
$GPGSA,A,3,16,14,29,03,,,,,,,,,5.9,1.9,5.6*3F
$GPRMC,121251.000,A,3017.7622,N,12006.5202,E,23.07,269.46,150115,,,A*56
$GPGGA,121252.000,3017.7625,N,12006.5132,E,1,04,1.9,4.5,M,7.0,M,,0000*62
$GPGSA,A,3,16,14,29,03,,,,,,,,,5.9,1.9,5.6*3F
$GPRMC,121252.000,A,3017.7625,N,12006.5132,E,22.16,269.45,150115,,,A*50
$GPGGA,121253.000,3017.7629,N,12006.5064,E,1,03,1.7,5.0,M,7.0,M,,0000*60
$GPGSA,A,2,16,14,29,,,,,,,,,,2.0,1.7,1.0*3F
$GPRMC,121253.000,A,3017.7629,N,12006.5064,E,21.27,270.25,150115,,,A*50
$GPGGA,121254.000,3017.7632,N,12006.4997,E,1,04,1.9,6.1,M,7.0,M,,0000*62
$GPGSA,A,3,16,14,29,03,,,,,,,,,5.9,1.9,5.6*3F
$GPRMC,121254.000,A,3017.7632,N,12006.4997,E,21.84,269.77,150115,,,A*5F
$GPGGA,121255.000,3017.7629,N,12006.4924,E,1,04,1.9,7.2,M,7.0,M,,0000*63
$GPGSA,A,3,16,14,29,03,,,,,,,,,5.9,1.9,5.6*3F
$GPGSV,3,1,10,31,54,037,39,16,47,244,46,14,37,141,44,32,31,241,43*75
$GPGSV,3,2,10,29,25,053,28,03,21,284,19,27,13,187,34,23,10,318,*7B
$GPGSV,3,3,10,25,03,047,20,20,02,313,*7C
$GPRMC,121255.000,A,3017.7629,N,12006.4924,E,23.36,268.93,150115,,,A*5C
$GPGGA,121256.000,3017.7626,N,12006.4846,E,1,04,1.9,8.2,M,7.0,M,,0000*65
$GPGSA,A,3,16,14,29,03,,,,,,,,,5.9,1.9,5.6*3F
$GPRMC,121256.000,A,3017.7626,N,12006.4846,E,24.63,271.17,150115,,,A*56
$GPGGA,121257.000,3017.7625,N,12006.4765,E,1,04,1.9,9.1,M,7.0,M,,0000*6B
$GPGSA,A,3,16,14,29,03,,,,,,,,,5.9,1.9,5.6*3F
$GPRMC,121257.000,A,3017.7625,N,12006.4765,E,25.37,273.52,150115,,,A*59
$GPGGA,121258.000,3017.7624,N,12006.4683,E,1,04,1.9,13.9,M,7.0,M,,0000*5F
$GPGSA,A,3,16,14,29,03,,,,,,,,,5.9,1.9,5.6*3F
$GPRMC,121258.000,A,3017.7624,N,12006.4683,E,25.78,274.77,150115,,,A*55
$GPGGA,121259.000,3017.7627,N,12006.4599,E,1,04,1.9,14.4,M,7.0,M,,0000*5F
$GPGSA,A,3,16,14,29,03,,,,,,,,,5.9,1.9,5.6*3F
$GPRMC,121259.000,A,3017.7627,N,12006.4599,E,26.33,273.65,150115,,,A*57
$GPGGA,121300.000,3017.7631,N,12006.4513,E,1,04,1.9,14.2,M,7.0,M,,0000*51
$GPGSA,A,3,16,14,29,03,,,,,,,,,5.9,1.9,5.6*3F
$GPGSV,3,1,10,31,54,037,39,16,47,244,46,14,37,141,44,32,31,241,44*72
$GPGSV,3,2,10,29,25,053,25,03,21,284,33,27,13,187,20,23,10,318,*7B
$GPGSV,3,3,10,25,03,047,10,20,02,313,*7F
$GPRMC,121300.000,A,3017.7631,N,12006.4513,E,26.38,274.45,150115,,,A*51
$GPGGA,121301.000,3017.7634,N,12006.4425,E,1,04,1.9,11.7,M,7.0,M,,0000*51
$GPGSA,A,3,16,14,29,03,,,,,,,,,5.9,1.9,5.6*3F
$GPRMC,121301.000,A,3017.7634,N,12006.4425,E,26.53,273.11,150115,,,A*5A
$GPGGA,121302.000,3017.7635,N,12006.4338,E,1,04,1.9,10.7,M,7.0,M,,0000*59
$GPGSA,A,3,16,14,29,03,,,,,,,,,5.9,1.9,5.6*3F
$GPRMC,121302.000,A,3017.7635,N,12006.4338,E,26.68,271.70,150115,,,A*5E
$GPGGA,121303.000,3017.7632,N,12006.4251,E,1,04,1.9,11.9,M,7.0,M,,0000*5E
$GPGSA,A,3,16,14,29,03,,,,,,,,,5.9,1.9,5.6*3F
$GPRMC,121303.000,A,3017.7632,N,12006.4251,E,27.06,268.80,150115,,,A*58
$GPGGA,121304.000,3017.7627,N,12006.4163,E,1,04,1.9,12.0,M,7.0,M,,0000*55
$GPGSA,A,3,16,14,29,03,,,,,,,,,5.9,1.9,5.5*3C
$GPRMC,121304.000,A,3017.7627,N,12006.4163,E,27.31,266.72,150115,,,A*5E
$GPGGA,121305.000,3017.7614,N,12006.4073,E,1,04,1.9,13.7,M,7.0,M,,0000*52
$GPGSA,A,3,16,14,29,03,,,,,,,,,5.9,1.9,5.5*3C
$GPGSV,3,1,10,31,54,037,23,16,47,244,47,14,37,141,44,32,31,241,44*78
$GPGSV,3,2,10,29,25,053,25,03,21,284,21,27,13,187,22,23,10,318,18*73
$GPGSV,3,3,10,25,03,047,,20,02,313,*7E
$GPRMC,121305.000,A,3017.7614,N,12006.4073,E,27.79,263.39,150115,,,A*59
$GPGGA,121306.000,3017.7584,N,12006.3978,E,1,04,1.9,15.6,M,7.0,M,,0000*59
$GPGSA,A,3,16,14,29,03,,,,,,,,,5.9,1.9,5.5*3C
$GPRMC,121306.000,A,3017.7584,N,12006.3978,E,29.22,257.86,150115,,,A*56
$GPGGA,121307.000,3017.7538,N,12006.3876,E,1,04,1.9,16.2,M,7.0,M,,0000*57
$GPGSA,A,3,16,14,29,03,,,,,,,,,5.9,1.9,5.5*3C
$GPRMC,121307.000,A,3017.7538,N,12006.3876,E,31.86,250.68,150115,,,A*5F
$GPGGA,121308.000,3017.7427,N,12006.3746,E,1,03,1.7,8.9,M,7.0,M,,0000*66
$GPGSA,A,2,16,14,29,,,,,,,,,,2.0,1.7,1.0*3F
$GPRMC,121308.000,A,3017.7427,N,12006.3746,E,36.27,242.83,150115,,,A*59
$GPGGA,121309.000,3017.7415,N,12006.3650,E,1,04,1.9,4.4,M,7.0,M,,0000*68
$GPGSA,A,3,16,14,29,03,,,,,,,,,5.9,1.9,5.5*3C
$GPRMC,121309.000,A,3017.7415,N,12006.3650,E,32.22,252.55,150115,,,A*54
$GPGGA,121310.000,3017.7435,N,12006.3563,E,1,04,1.9,-0.1,M,7.0,M,,0000*4D
$GPGSA,A,3,16,14,29,03,,,,,,,,,5.8,1.9,5.5*3D
$GPGSV,3,1,10,31,54,037,41,16,47,244,47,14,37,141,43,32,31,241,44*7B
$GPGSV,3,2,10,29,25,053,21,03,21,284,33,27,13,187,22,23,10,318,23*7C
$GPGSV,3,3,10,25,03,047,,20,02,313,*7E
$GPRMC,121310.000,A,3017.7435,N,12006.3563,E,28.92,265.78,150115,,,A*56
$GPGGA,121311.000,3017.7430,N,12006.3467,E,1,04,1.9,-6.7,M,7.0,M,,0000*4C
$GPGSA,A,3,16,14,29,03,,,,,,,,,5.8,1.9,5.5*3D
$GPRMC,121311.000,A,3017.7430,N,12006.3467,E,28.44,268.01,150115,,,A*5F
$GPGGA,121312.000,3017.7417,N,12006.3368,E,1,04,1.9,-13.1,M,7.0,M,,0000*70
$GPGSA,A,3,16,14,29,03,,,,,,,,,5.8,1.9,5.5*3D
$GPRMC,121312.000,A,3017.7417,N,12006.3368,E,28.31,266.96,150115,,,A*53
$GPGGA,121313.000,3017.7408,N,12006.3273,E,1,04,1.9,-18.5,M,7.0,M,,0000*7B
$GPGSA,A,3,16,14,29,03,,,,,,,,,5.8,1.9,5.5*3D
$GPRMC,121313.000,A,3017.7408,N,12006.3273,E,28.33,266.32,150115,,,A*5B
$GPGGA,121314.000,3017.7395,N,12006.3176,E,1,04,1.9,-24.0,M,7.0,M,,0000*73
$GPGSA,A,3,16,14,29,03,,,,,,,,,5.8,1.9,5.5*3D
$GPRMC,121314.000,A,3017.7395,N,12006.3176,E,28.67,265.15,150115,,,A*5E
$GPGGA,121315.000,3017.7376,N,12006.3078,E,1,04,1.9,-30.4,M,7.0,M,,0000*71
$GPGSA,A,3,16,14,29,03,,,,,,,,,5.8,1.9,5.5*3D
$GPGSV,3,1,10,31,54,037,29,16,47,244,47,14,37,141,44,32,31,241,44*72
$GPGSV,3,2,10,29,25,052,24,03,21,284,34,27,14,187,33,23,10,318,20*7B
$GPGSV,3,3,10,25,03,047,,20,03,313,*7F
$GPRMC,121315.000,A,3017.7376,N,12006.3078,E,28.43,263.92,150115,,,A*52
$GPGGA,121316.000,3017.7330,N,12006.2969,E,1,04,1.9,-41.2,M,7.0,M,,0000*78
$GPGSA,A,3,16,14,29,03,,,,,,,,,5.8,1.9,5.5*3D
$GPRMC,121316.000,A,3017.7330,N,12006.2969,E,28.61,261.40,150115,,,A*56
$GPGGA,121317.000,3017.7310,N,12006.2873,E,1,04,1.9,-47.6,M,7.0,M,,0000*73
$GPGSA,A,3,16,14,29,03,,,,,,,,,5.8,1.9,5.5*3D
$GPRMC,121317.000,A,3017.7310,N,12006.2873,E,28.51,261.82,150115,,,A*52
$GPGGA,121318.000,3017.7300,N,12006.2781,E,1,04,1.9,-52.2,M,7.0,M,,0000*7F
$GPGSA,A,3,16,14,29,03,,,,,,,,,5.8,1.9,5.5*3D
$GPRMC,121318.000,A,3017.7300,N,12006.2781,E,28.34,262.37,150115,,,A*50
$GPGGA,121319.000,3017.7292,N,12006.2691,E,1,04,1.9,-56.4,M,7.0,M,,0000*76
$GPGSA,A,3,16,14,29,03,,,,,,,,,5.8,1.9,5.5*3D
$GPRMC,121319.000,A,3017.7292,N,12006.2691,E,28.18,262.79,150115,,,A*5F
$GPGGA,121320.000,3017.7284,N,12006.2602,E,1,04,1.9,-60.1,M,7.0,M,,0000*71
$GPGSA,A,3,16,14,29,03,,,,,,,,,5.8,1.9,5.5*3D
$GPGSV,3,1,10,31,54,037,41,16,47,244,47,14,37,141,44,32,31,241,44*7C
$GPGSV,3,2,10,29,25,052,33,03,21,284,33,27,14,187,37,23,10,318,19*74
$GPGSV,3,3,10,25,03,047,,20,03,313,*7F
$GPRMC,121320.000,A,3017.7284,N,12006.2602,E,27.81,261.87,150115,,,A*55
$GPGGA,121321.000,3017.7281,N,12006.2518,E,1,04,1.9,-62.8,M,7.0,M,,0000*76
$GPGSA,A,3,16,14,29,03,,,,,,,,,5.8,1.9,5.5*3D
$GPRMC,121321.000,A,3017.7281,N,12006.2518,E,26.51,261.96,150115,,,A*55
$GPGGA,121322.000,3017.7285,N,12006.2442,E,1,04,1.9,-64.0,M,7.0,M,,0000*71
$GPGSA,A,3,16,14,29,03,,,,,,,,,5.8,1.9,5.5*3D
$GPRMC,121322.000,A,3017.7285,N,12006.2442,E,24.86,263.94,150115,,,A*54
$GPGGA,121323.000,3017.7293,N,12006.2371,E,1,04,1.9,-64.6,M,7.0,M,,0000*76
$GPGSA,A,3,16,14,29,03,,,,,,,,,5.8,1.9,5.5*3D
$GPRMC,121323.000,A,3017.7293,N,12006.2371,E,23.33,265.95,150115,,,A*5B
$GPGGA,121324.000,3017.7300,N,12006.2303,E,1,04,1.9,-64.8,M,7.0,M,,0000*71
$GPGSA,A,3,16,14,29,03,,,,,,,,,5.8,1.9,5.5*3D
$GPRMC,121324.000,A,3017.7300,N,12006.2303,E,22.12,267.15,150115,,,A*5A
$GPGGA,121325.000,3017.7308,N,12006.2238,E,1,04,1.9,-64.8,M,7.0,M,,0000*71
$GPGSA,A,3,16,14,29,03,,,,,,,,,5.8,1.9,5.5*3D
$GPGSV,3,1,10,31,54,037,40,16,47,244,47,14,37,141,44,32,31,241,43*7A
$GPGSV,3,2,10,29,25,052,33,03,21,284,34,27,14,187,24,23,10,318,19*71
$GPGSV,3,3,10,25,03,047,,20,03,313,*7F
$GPRMC,121325.000,A,3017.7308,N,12006.2238,E,21.15,267.33,150115,,,A*5A
$GPGGA,121326.000,3017.7315,N,12006.2177,E,1,04,1.9,-64.5,M,7.0,M,,0000*7B
$GPGSA,A,3,16,14,29,03,,,,,,,,,5.8,1.9,5.5*3D
$GPRMC,121326.000,A,3017.7315,N,12006.2177,E,20.01,267.47,150115,,,A*5A
$GPGGA,121327.000,3017.7322,N,12006.2120,E,1,04,1.9,-64.3,M,7.0,M,,0000*7A
$GPGSA,A,3,16,14,29,03,,,,,,,,,5.8,1.9,5.5*3D
$GPRMC,121327.000,A,3017.7322,N,12006.2120,E,18.57,267.52,150115,,,A*51
$GPGGA,121328.000,3017.7328,N,12006.2066,E,1,04,1.9,-63.7,M,7.0,M,,0000*7F
$GPGSA,A,3,16,14,29,03,,,,,,,,,5.8,1.9,5.5*3D
$GPRMC,121328.000,A,3017.7328,N,12006.2066,E,17.62,267.81,150115,,,A*50
$GPGGA,121329.000,3017.7335,N,12006.2016,E,1,04,1.9,-63.0,M,7.0,M,,0000*72
$GPGSA,A,3,16,14,29,03,,,,,,,,,5.8,1.9,5.4*3C
$GPRMC,121329.000,A,3017.7335,N,12006.2016,E,16.64,268.05,150115,,,A*5E
$GPGGA,121330.000,3017.7342,N,12006.1967,E,1,04,1.9,-62.2,M,7.0,M,,0000*75
$GPGSA,A,3,16,14,29,03,,,,,,,,,5.8,1.9,5.4*3C
$GPGSV,3,1,10,31,54,037,40,16,47,244,46,14,37,141,44,32,31,241,43*7B
$GPGSV,3,2,10,29,25,052,33,03,21,284,34,27,14,187,21,23,10,318,27*79
$GPGSV,3,3,10,25,03,047,,20,03,313,*7F
$GPRMC,121330.000,A,3017.7342,N,12006.1967,E,16.11,268.13,150115,,,A*5F
$GPGGA,121331.000,3017.7348,N,12006.1921,E,1,04,1.9,-61.3,M,7.0,M,,0000*7E
$GPGSA,A,3,16,14,29,03,,,,,,,,,5.8,1.9,5.4*3C
$GPRMC,121331.000,A,3017.7348,N,12006.1921,E,15.46,268.34,150115,,,A*52
$GPGGA,121332.000,3017.7354,N,12006.1876,E,1,04,1.9,-60.4,M,7.0,M,,0000*75
$GPGSA,A,3,16,14,29,03,,,,,,,,,5.8,1.9,5.4*3C
$GPRMC,121332.000,A,3017.7354,N,12006.1876,E,14.99,268.38,150115,,,A*50
$GPGGA,121333.000,3017.7359,N,12006.1829,E,1,04,1.9,-59.4,M,7.0,M,,0000*79
$GPGSA,A,3,16,14,29,03,,,,,,,,,5.8,1.9,5.4*3C
$GPRMC,121333.000,A,3017.7359,N,12006.1829,E,16.04,268.35,150115,,,A*5D
$GPGGA,121334.000,3017.7365,N,12006.1779,E,1,04,1.9,-58.5,M,7.0,M,,0000*7B
$GPGSA,A,3,16,14,29,03,,,,,,,,,5.7,1.9,5.4*33
$GPRMC,121334.000,A,3017.7365,N,12006.1779,E,17.63,268.61,150115,,,A*5E
$GPGGA,121335.000,3017.7370,N,12006.1723,E,1,04,1.9,-57.6,M,7.0,M,,0000*7D
$GPGSA,A,3,16,14,29,03,,,,,,,,,5.7,1.9,5.4*33
$GPGSV,3,1,10,31,54,037,40,16,47,244,46,14,37,141,44,32,31,241,43*7B
$GPGSV,3,2,10,29,25,052,32,03,21,284,35,27,14,187,13,23,10,318,27*78
$GPGSV,3,3,10,25,03,047,,20,03,313,*7F
$GPRMC,121335.000,A,3017.7370,N,12006.1723,E,18.99,269.12,150115,,,A*5B
$GPGGA,121336.000,3017.7374,N,12006.1662,E,1,04,1.9,-57.2,M,7.0,M,,0000*7A
$GPGSA,A,3,16,14,29,03,,,,,,,,,5.7,1.9,5.4*33
$GPRMC,121336.000,A,3017.7374,N,12006.1662,E,20.00,271.48,150115,,,A*55
$GPGGA,121337.000,3017.7384,N,12006.1600,E,1,04,1.9,-56.0,M,7.0,M,,0000*73
$GPGSA,A,3,16,14,29,03,,,,,,,,,5.7,1.9,5.4*33
$GPRMC,121337.000,A,3017.7384,N,12006.1600,E,20.56,274.77,150115,,,A*55
$GPGGA,121338.000,3017.7394,N,12006.1535,E,1,04,1.9,-56.4,M,7.0,M,,0000*7C
$GPGSA,A,3,16,14,29,03,,,,,,,,,5.7,1.9,5.4*33
$GPRMC,121338.000,A,3017.7394,N,12006.1535,E,20.92,276.56,150115,,,A*57
$GPGGA,121339.000,3017.7406,N,12006.1470,E,1,04,1.9,-56.3,M,7.0,M,,0000*76
$GPGSA,A,3,16,14,29,03,,,,,,,,,5.7,1.9,5.4*33
$GPRMC,121339.000,A,3017.7406,N,12006.1470,E,20.96,276.39,150115,,,A*57
$GPGGA,121340.000,3017.7415,N,12006.1406,E,1,04,1.9,-56.4,M,7.0,M,,0000*7C
$GPGSA,A,3,16,14,29,03,,,,,,,,,5.7,1.9,5.4*33
$GPGSV,3,1,10,31,54,037,42,16,47,244,46,14,37,141,40,32,31,241,43*7D
$GPGSV,3,2,10,29,25,052,32,03,21,284,27,27,14,187,,23,10,318,26*78
$GPGSV,3,3,10,25,03,047,,20,03,313,*7F
$GPRMC,121340.000,A,3017.7415,N,12006.1406,E,20.35,273.24,150115,,,A*5A
$GPGGA,121341.000,3017.7423,N,12006.1344,E,1,04,1.9,-56.0,M,7.0,M,,0000*7D
$GPGSA,A,3,16,14,29,03,,,,,,,,,5.7,1.9,5.4*33
$GPRMC,121341.000,A,3017.7423,N,12006.1344,E,19.55,271.40,150115,,,A*53
$GPGGA,121342.000,3017.7428,N,12006.1284,E,1,04,1.9,-55.5,M,7.0,M,,0000*7E
$GPGSA,A,3,16,14,29,03,,,,,,,,,5.7,1.9,5.4*33
$GPRMC,121342.000,A,3017.7428,N,12006.1284,E,19.23,269.97,150115,,,A*54
$GPGGA,121343.000,3017.7432,N,12006.1226,E,1,04,1.9,-54.8,M,7.0,M,,0000*70
$GPGSA,A,3,16,14,29,03,,,,,,,,,5.7,1.9,5.4*33
$GPRMC,121343.000,A,3017.7432,N,12006.1226,E,18.06,269.38,150115,,,A*55
$GPGGA,121344.000,3017.7436,N,12006.1174,E,1,04,1.9,-53.9,M,7.0,M,,0000*71
$GPGSA,A,3,16,14,29,03,,,,,,,,,5.7,1.9,5.4*33
$GPRMC,121344.000,A,3017.7436,N,12006.1174,E,16.19,269.01,150115,,,A*58
$GPGGA,121345.000,3017.7440,N,12006.1129,E,1,04,1.9,-52.9,M,7.0,M,,0000*78
$GPGSA,A,3,16,14,29,03,,,,,,,,,5.7,1.9,5.4*33
$GPGSV,3,1,10,31,54,037,40,16,47,245,47,14,37,141,43,32,31,240,44*7A
$GPGSV,3,2,10,29,24,052,33,03,21,283,35,27,14,187,34,23,10,318,25*78
$GPGSV,3,3,10,25,03,047,,20,03,313,*7F
$GPRMC,121345.000,A,3017.7440,N,12006.1129,E,13.34,269.07,150115,,,A*5C
$GPGGA,121346.000,3017.7467,N,12006.1105,E,1,04,1.9,-46.7,M,7.0,M,,0000*7B
$GPGSA,A,3,16,14,29,03,,,,,,,,,5.7,1.9,5.4*33
$GPRMC,121346.000,A,3017.7467,N,12006.1105,E,10.58,269.35,150115,,,A*5C
$GPGGA,121347.000,3017.7483,N,12006.1083,E,1,04,1.9,-43.0,M,7.0,M,,0000*7D
$GPGSA,A,3,16,14,29,03,,,,,,,,,5.7,1.9,5.4*33
$GPRMC,121347.000,A,3017.7483,N,12006.1083,E,8.46,271.76,150115,,,A*60
$GPGGA,121348.000,3017.7492,N,12006.1063,E,1,04,1.9,-40.7,M,7.0,M,,0000*78
$GPGSA,A,3,16,14,29,03,,,,,,,,,5.7,1.9,5.4*33
$GPRMC,121348.000,A,3017.7492,N,12006.1063,E,6.76,274.35,150115,,,A*6E
$GPGGA,121349.000,3017.7508,N,12006.1050,E,1,04,1.9,-37.2,M,7.0,M,,0000*7E
$GPGSA,A,3,16,14,29,03,,,,,,,,,5.7,1.9,5.4*33
$GPRMC,121349.000,A,3017.7508,N,12006.1050,E,6.04,281.37,150115,,,A*60
$GPGGA,121350.000,3017.7527,N,12006.1041,E,1,04,1.9,-32.1,M,7.0,M,,0000*7D
$GPGSA,A,3,16,14,29,03,,,,,,,,,5.7,1.9,5.4*33
$GPGSV,3,1,10,31,54,037,40,16,47,245,46,14,37,141,41,32,31,240,43*7E
$GPGSV,3,2,10,29,24,052,35,03,21,283,26,27,14,187,36,23,10,318,31*7B
$GPGSV,3,3,10,25,03,047,,20,03,313,*7F
$GPRMC,121350.000,A,3017.7527,N,12006.1041,E,5.45,284.52,150115,,,A*65
$GPGGA,121351.000,3017.7545,N,12006.1031,E,1,04,1.9,-28.8,M,7.0,M,,0000*7D
$GPGSA,A,3,16,14,29,03,,,,,,,,,5.7,1.9,5.4*33
$GPRMC,121351.000,A,3017.7545,N,12006.1031,E,5.47,296.55,150115,,,A*61
$GPGGA,121352.000,3017.7564,N,12006.1021,E,1,04,1.9,-25.9,M,7.0,M,,0000*70
$GPGSA,A,3,16,14,29,03,,,,,,,,,5.7,1.9,5.4*33
$GPRMC,121352.000,A,3017.7564,N,12006.1021,E,5.97,308.24,150115,,,A*6D
$GPGGA,121353.000,3017.7585,N,12006.1012,E,1,04,1.9,-23.3,M,7.0,M,,0000*72
$GPGSA,A,3,16,14,29,03,,,,,,,,,5.7,1.9,5.4*33
$GPRMC,121353.000,A,3017.7585,N,12006.1012,E,6.50,321.21,150115,,,A*65
$GPGGA,121354.000,3017.7609,N,12006.1004,E,1,04,1.9,-20.8,M,7.0,M,,0000*7D
$GPGSA,A,3,16,14,29,03,,,,,,,,,5.7,1.9,5.3*34
$GPRMC,121354.000,A,3017.7609,N,12006.1004,E,7.58,329.42,150115,,,A*66
$GPGGA,121355.000,3017.7637,N,12006.0996,E,1,04,1.9,-18.5,M,7.0,M,,0000*74
$GPGSA,A,3,16,14,29,03,,,,,,,,,5.7,1.9,5.3*34
$GPGSV,3,1,10,31,54,037,35,16,47,245,46,14,37,141,37,32,31,240,40*7E
$GPGSV,3,2,10,29,24,052,32,03,21,283,38,27,14,187,33,23,10,318,32*75
$GPGSV,3,3,10,25,03,047,,20,03,313,*7F
$GPRMC,121355.000,A,3017.7637,N,12006.0996,E,8.70,336.05,150115,,,A*61
$GPGGA,121356.000,3017.7669,N,12006.0989,E,1,04,1.9,-17.0,M,7.0,M,,0000*78
$GPGSA,A,3,16,14,29,03,,,,,,,,,5.7,1.9,5.3*34
$GPRMC,121356.000,A,3017.7669,N,12006.0989,E,10.66,342.84,150115,,,A*53
$GPGGA,121357.000,3017.7707,N,12006.0983,E,1,04,1.9,-15.2,M,7.0,M,,0000*7A
$GPGSA,A,3,16,14,29,03,,,,,,,,,5.7,1.9,5.3*34
$GPRMC,121357.000,A,3017.7707,N,12006.0983,E,12.70,347.70,150115,,,A*5A
$GPGGA,121358.000,3017.7750,N,12006.0977,E,1,04,1.9,-13.5,M,7.0,M,,0000*7D
$GPGSA,A,3,16,14,29,03,,,,,,,,,5.7,1.9,5.3*34
$GPRMC,121358.000,A,3017.7750,N,12006.0977,E,14.72,349.56,150115,,,A*52
$GPGGA,121359.000,3017.7798,N,12006.0971,E,1,04,1.9,-12.1,M,7.0,M,,0000*7B
$GPGSA,A,3,16,14,29,03,,,,,,,,,5.6,1.9,5.3*35
$GPRMC,121359.000,A,3017.7798,N,12006.0971,E,16.25,350.99,150115,,,A*5A
$GPGGA,121400.000,3017.7846,N,12006.0966,E,1,04,1.9,-10.6,M,7.0,M,,0000*7F
$GPGSA,A,3,16,14,29,03,,,,,,,,,5.6,1.9,5.3*35
$GPGSV,3,1,10,31,54,037,43,16,47,245,46,14,37,141,33,32,31,240,43*78
$GPGSV,3,2,10,29,24,052,38,03,21,283,38,27,14,187,30,23,10,318,18*74
$GPGSV,3,3,10,25,03,047,,20,03,313,*7F
$GPRMC,121400.000,A,3017.7846,N,12006.0966,E,16.27,352.57,150115,,,A*59
$GPGGA,121401.000,3017.7894,N,12006.0963,E,1,04,1.9,-9.1,M,7.0,M,,0000*4B
$GPGSA,A,3,16,14,29,03,,,,,,,,,5.6,1.9,5.3*35
$GPRMC,121401.000,A,3017.7894,N,12006.0963,E,15.80,353.25,150115,,,A*58
$GPGGA,121402.000,3017.7940,N,12006.0958,E,1,04,1.9,-8.1,M,7.0,M,,0000*49
$GPGSA,A,3,16,14,29,03,,,,,,,,,5.6,1.9,5.3*35
$GPRMC,121402.000,A,3017.7940,N,12006.0958,E,16.44,352.80,150115,,,A*5E
$GPGGA,121403.000,3017.7992,N,12006.0953,E,1,04,1.9,-7.0,M,7.0,M,,0000*42
$GPGSA,A,3,16,14,29,03,,,,,,,,,5.6,1.9,5.3*35
$GPRMC,121403.000,A,3017.7992,N,12006.0953,E,18.43,354.06,150115,,,A*5A
$GPGGA,121404.000,3017.8047,N,12006.0948,E,1,04,1.9,-5.9,M,7.0,M,,0000*4A
$GPGSA,A,3,16,14,29,03,,,,,,,,,5.6,1.9,5.3*35
$GPRMC,121404.000,A,3017.8047,N,12006.0948,E,19.34,352.79,150115,,,A*56
$GPGGA,121405.000,3017.8099,N,12006.0941,E,1,04,1.9,-5.8,M,7.0,M,,0000*40
$GPGSA,A,3,16,14,29,03,,,,,,,,,5.6,1.9,5.3*35
$GPGSV,3,1,10,31,54,037,44,16,47,245,46,14,37,141,33,32,31,240,43*7F
$GPGSV,3,2,10,29,24,052,29,03,21,283,36,27,14,187,23,23,10,318,*71
$GPGSV,3,3,10,25,03,047,,20,03,313,*7F
$GPRMC,121405.000,A,3017.8099,N,12006.0941,E,19.20,352.16,150115,,,A*51
$GPGGA,121406.000,3017.8151,N,12006.0933,E,1,03,4.5,-6.0,M,7.0,M,,0000*46
$GPGSA,A,2,16,14,03,,,,,,,,,,4.6,4.5,1.0*30
$GPRMC,121406.000,A,3017.8151,N,12006.0933,E,20.14,352.51,150115,,,A*5C
$GPGGA,121407.000,3017.8205,N,12006.0924,E,1,04,1.9,-6.4,M,7.0,M,,0000*49
$GPGSA,A,3,16,14,29,03,,,,,,,,,5.6,1.9,5.3*35
$GPRMC,121407.000,A,3017.8205,N,12006.0924,E,20.96,353.16,150115,,,A*51
$GPGGA,121408.000,3017.8262,N,12006.0914,E,1,04,1.9,-6.2,M,7.0,M,,0000*42
$GPGSA,A,3,16,14,29,03,,,,,,,,,5.6,1.9,5.3*35
$GPRMC,121408.000,A,3017.8262,N,12006.0914,E,20.83,351.95,150115,,,A*51
$GPGGA,121409.000,3017.8319,N,12006.0906,E,1,04,1.9,-6.5,M,7.0,M,,0000*4A
$GPGSA,A,3,16,14,29,03,,,,,,,,,5.6,1.9,5.3*35
$GPRMC,121409.000,A,3017.8319,N,12006.0906,E,22.01,353.05,150115,,,A*5D
$GPGGA,121410.000,3017.8375,N,12006.0897,E,1,04,1.9,-5.9,M,7.0,M,,0000*4E
$GPGSA,A,3,16,14,29,03,,,,,,,,,5.6,1.9,5.3*35
$GPGSV,3,1,10,31,54,037,37,16,47,245,46,14,37,141,32,32,31,240,44*7D
$GPGSV,3,2,10,29,24,052,24,03,21,283,32,27,14,187,30,23,10,318,24*7C
$GPGSV,3,3,10,25,03,047,,20,03,313,*7F
$GPRMC,121410.000,A,3017.8375,N,12006.0897,E,21.79,352.01,150115,,,A*5F
$GPGGA,121411.000,3017.8425,N,12006.0887,E,1,04,1.9,-4.7,M,7.0,M,,0000*43
$GPGSA,A,3,16,14,29,03,,,,,,,,,5.6,1.9,5.3*35
$GPRMC,121411.000,A,3017.8425,N,12006.0887,E,22.07,352.28,150115,,,A*5C
$GPGGA,121412.000,3017.8489,N,12006.0881,E,1,04,1.9,-2.6,M,7.0,M,,0000*47
$GPGSA,A,3,16,14,29,03,,,,,,,,,5.6,1.9,5.3*35
$GPRMC,121412.000,A,3017.8489,N,12006.0881,E,21.72,351.89,150115,,,A*56
$GPGGA,121413.000,3017.8547,N,12006.0870,E,1,04,1.9,-1.9,M,7.0,M,,0000*47
$GPGSA,A,3,16,14,29,03,,,,,,,,,5.6,1.9,5.3*35
$GPRMC,121413.000,A,3017.8547,N,12006.0870,E,21.73,352.73,150115,,,A*5D
$GPGGA,121414.000,3017.8611,N,12006.0863,E,1,03,4.5,-1.2,M,7.0,M,,0000*47
$GPGSA,A,2,16,14,03,,,,,,,,,,4.6,4.5,1.0*30
$GPRMC,121414.000,A,3017.8611,N,12006.0863,E,22.69,359.16,150115,,,A*58
$GPGGA,121415.000,3017.8675,N,12006.0861,E,1,04,1.9,2.3,M,7.0,M,,0000*67
$GPGSA,A,3,16,14,29,03,,,,,,,,,5.6,1.9,5.3*35
$GPGSV,3,1,10,31,54,038,41,16,47,245,46,14,36,141,18,32,31,240,44*7A
$GPGSV,3,2,10,29,24,052,20,03,21,283,32,27,14,187,30,23,10,318,23*7F
$GPGSV,3,3,10,25,03,047,,20,03,312,*7E
$GPRMC,121415.000,A,3017.8675,N,12006.0861,E,22.63,7.07,150115,,,A*5B
$GPGGA,121416.000,3017.8722,N,12006.0849,E,1,03,2.6,3.0,M,7.0,M,,0000*64
$GPGSA,A,2,16,29,03,,,,,,,,,,2.8,2.6,1.0*33
$GPRMC,121416.000,A,3017.8722,N,12006.0849,E,19.62,351.17,150115,,,A*59
$GPGGA,121417.000,3017.8778,N,12006.0838,E,1,04,1.9,3.7,M,7.0,M,,0000*60
$GPGSA,A,3,16,14,29,03,,,,,,,,,5.6,1.9,5.3*35
$GPRMC,121417.000,A,3017.8778,N,12006.0838,E,19.97,350.63,150115,,,A*59
$GPGGA,121418.000,3017.8836,N,12006.0830,E,1,04,1.9,5.8,M,7.0,M,,0000*6B
$GPGSA,A,3,16,14,29,03,,,,,,,,,5.6,1.9,5.3*35
$GPRMC,121418.000,A,3017.8836,N,12006.0830,E,18.73,350.24,150115,,,A*53
$GPGGA,121419.000,3017.8875,N,12006.0820,E,1,04,1.9,6.8,M,7.0,M,,0000*6F
$GPGSA,A,3,16,14,29,03,,,,,,,,,5.6,1.9,5.3*35
$GPRMC,121419.000,A,3017.8875,N,12006.0820,E,16.53,347.62,150115,,,A*5C
$GPGGA,121420.000,3017.8919,N,12006.0796,E,1,04,1.9,8.3,M,7.0,M,,0000*69
$GPGSA,A,3,16,14,29,03,,,,,,,,,5.6,1.9,5.2*34
$GPGSV,3,1,10,31,54,038,37,16,47,245,46,14,36,141,28,32,31,240,44*78
$GPGSV,3,2,10,29,24,052,21,03,21,283,32,27,14,187,30,23,10,318,23*7E
$GPGSV,3,3,10,25,03,047,,20,03,312,*7E
$GPRMC,121420.000,A,3017.8919,N,12006.0796,E,15.05,345.11,150115,,,A*59
$GPGGA,121421.000,3017.8962,N,12006.0773,E,1,04,1.8,8.5,M,7.0,M,,0000*68
$GPGSA,A,3,16,14,29,03,,,,,,,,,5.6,1.8,5.2*35
$GPRMC,121421.000,A,3017.8962,N,12006.0773,E,16.13,337.22,150115,,,A*5E
$GPGGA,121422.000,3017.9024,N,12006.0763,E,1,04,1.8,12.9,M,7.0,M,,0000*57
$GPGSA,A,3,16,14,29,03,,,,,,,,,5.6,1.8,5.2*35
$GPRMC,121422.000,A,3017.9024,N,12006.0763,E,16.96,346.34,150115,,,A*5A
$GPGGA,121423.000,3017.9100,N,12006.0770,E,1,04,1.8,18.2,M,7.0,M,,0000*52
$GPGSA,A,3,16,14,29,03,,,,,,,,,5.6,1.8,5.2*35
$GPRMC,121423.000,A,3017.9100,N,12006.0770,E,19.27,355.39,150115,,,A*54
$GPGGA,121424.000,3017.9160,N,12006.0777,E,1,04,1.8,19.3,M,7.0,M,,0000*54
$GPGSA,A,3,16,14,29,03,,,,,,,,,5.5,1.8,5.2*36
$GPRMC,121424.000,A,3017.9160,N,12006.0777,E,19.97,357.75,150115,,,A*53
$GPGGA,121425.000,3017.9197,N,12006.0775,E,1,04,1.8,17.5,M,7.0,M,,0000*57
$GPGSA,A,3,16,14,29,03,,,,,,,,,5.5,1.8,5.2*36
$GPGSV,3,1,10,31,54,038,43,16,47,245,46,14,36,141,31,32,31,240,44*73
$GPGSV,3,2,10,29,24,052,23,03,21,283,33,27,14,187,24,23,10,318,22*79
$GPGSV,3,3,10,25,03,047,,20,03,312,*7E
$GPRMC,121425.000,A,3017.9197,N,12006.0775,E,18.72,357.65,150115,,,A*53
$GPGGA,121426.000,3017.9234,N,12006.0774,E,1,04,1.8,17.1,M,7.0,M,,0000*5B
$GPGSA,A,3,16,14,29,03,,,,,,,,,5.5,1.8,5.2*36
$GPRMC,121426.000,A,3017.9234,N,12006.0774,E,16.23,350.24,150115,,,A*53
$GPGGA,121427.000,3017.9272,N,12006.0759,E,1,04,1.8,15.8,M,7.0,M,,0000*5C
$GPGSA,A,3,16,14,29,03,,,,,,,,,5.5,1.8,5.2*36
$GPRMC,121427.000,A,3017.9272,N,12006.0759,E,15.15,342.64,150115,,,A*5E
$GPGGA,121428.000,3017.9303,N,12006.0737,E,1,04,1.8,14.3,M,7.0,M,,0000*56
$GPGSA,A,3,16,14,29,03,,,,,,,,,5.5,1.8,5.2*36
$GPRMC,121428.000,A,3017.9303,N,12006.0737,E,14.90,333.23,150115,,,A*57
$GPGGA,121429.000,3017.9325,N,12006.0709,E,1,03,2.6,11.7,M,7.0,M,,0000*55
$GPGSA,A,2,16,29,03,,,,,,,,,,2.8,2.6,1.0*33
$GPRMC,121429.000,A,3017.9325,N,12006.0709,E,13.26,330.97,150115,,,A*59
$GPGGA,121430.000,3017.9364,N,12006.0699,E,1,03,2.6,12.2,M,7.0,M,,0000*56
$GPGSA,A,2,16,29,03,,,,,,,,,,2.8,2.6,1.0*33
$GPGSV,3,1,10,31,54,038,44,16,47,245,46,14,36,141,,32,31,240,45*77
$GPGSV,3,2,10,29,24,052,34,03,21,283,37,27,14,187,19,23,10,318,25*72
$GPGSV,3,3,10,25,03,047,,20,03,312,*7E
$GPRMC,121430.000,A,3017.9364,N,12006.0699,E,11.41,331.93,150115,,,A*5A
$GPGGA,121431.000,3017.9401,N,12006.0699,E,1,04,1.8,12.3,M,7.0,M,,0000*58
$GPGSA,A,3,16,14,29,03,,,,,,,,,5.5,1.8,5.2*36
$GPRMC,121431.000,A,3017.9401,N,12006.0699,E,11.40,346.22,150115,,,A*54
$GPGGA,121432.000,3017.9421,N,12006.0705,E,1,04,1.8,11.3,M,7.0,M,,0000*5E
$GPGSA,A,3,16,14,29,03,,,,,,,,,5.5,1.8,5.2*36
$GPRMC,121432.000,A,3017.9421,N,12006.0705,E,7.11,343.79,150115,,,A*69
$GPGGA,121433.000,3017.9447,N,12006.0703,E,1,04,1.8,13.1,M,7.0,M,,0000*59
$GPGSA,A,3,16,14,29,03,,,,,,,,,5.5,1.8,5.2*36
$GPRMC,121433.000,A,3017.9447,N,12006.0703,E,4.94,334.45,150115,,,A*6F
$GPGGA,121434.000,3017.9460,N,12006.0704,E,1,04,1.8,15.0,M,7.0,M,,0000*5B
$GPGSA,A,3,16,14,29,03,,,,,,,,,5.5,1.8,5.2*36
$GPRMC,121434.000,A,3017.9460,N,12006.0704,E,1.57,338.61,150115,,,A*6A
$GPGGA,121435.000,3017.9471,N,12006.0705,E,1,04,1.8,16.5,M,7.0,M,,0000*5D
$GPGSA,A,3,16,14,29,03,,,,,,,,,5.5,1.8,5.2*36
$GPGSV,3,1,10,31,54,038,44,16,47,245,47,14,36,141,34,32,31,240,45*71
$GPGSV,3,2,10,29,24,052,35,03,21,283,34,27,14,187,29,23,10,318,16*73
$GPGSV,3,3,10,25,03,047,,20,03,312,*7E
$GPRMC,121435.000,A,3017.9471,N,12006.0705,E,0.64,7.73,150115,,,A*67
$GPGGA,121436.000,3017.9480,N,12006.0706,E,1,04,1.8,18.2,M,7.0,M,,0000*5A
$GPGSA,A,3,16,14,29,03,,,,,,,,,5.5,1.8,5.2*36
$GPRMC,121436.000,A,3017.9480,N,12006.0706,E,0.56,13.65,150115,,,A*5A
$GPGGA,121437.000,3017.9484,N,12006.0708,E,1,04,1.8,19.1,M,7.0,M,,0000*53
$GPGSA,A,3,16,14,29,03,,,,,,,,,5.5,1.8,5.2*36
$GPRMC,121437.000,A,3017.9484,N,12006.0708,E,0.50,18.68,150115,,,A*51
$GPGGA,121438.000,3017.9486,N,12006.0711,E,1,04,1.8,19.6,M,7.0,M,,0000*51
$GPGSA,A,3,16,14,29,03,,,,,,,,,5.5,1.8,5.2*36
$GPRMC,121438.000,A,3017.9486,N,12006.0711,E,0.48,22.73,150115,,,A*5E
$GPGGA,121439.000,3017.9487,N,12006.0714,E,1,04,1.8,19.9,M,7.0,M,,0000*5B
$GPGSA,A,3,16,14,29,03,,,,,,,,,5.5,1.8,5.2*36
$GPRMC,121439.000,A,3017.9487,N,12006.0714,E,0.43,24.04,150115,,,A*56
$GPGGA,121440.000,3017.9487,N,12006.0717,E,1,04,1.8,19.8,M,7.0,M,,0000*57
$GPGSA,A,3,16,14,29,03,,,,,,,,,5.5,1.8,5.2*36
$GPGSV,3,1,10,31,54,038,43,16,47,245,48,14,36,141,35,32,31,240,44*79
$GPGSV,3,2,10,29,24,052,35,03,21,283,35,27,14,187,30,23,10,318,*7D
$GPGSV,3,3,10,25,03,047,,20,03,312,*7E
$GPRMC,121440.000,A,3017.9487,N,12006.0717,E,0.38,26.55,150115,,,A*51
$GPGGA,121441.000,3017.9485,N,12006.0720,E,1,04,1.8,19.5,M,7.0,M,,0000*5D
$GPGSA,A,3,16,14,29,03,,,,,,,,,5.5,1.8,5.2*36
$GPRMC,121441.000,A,3017.9485,N,12006.0720,E,0.33,32.06,150115,,,A*5E
$GPGGA,121442.000,3017.9483,N,12006.0723,E,1,04,1.8,19.0,M,7.0,M,,0000*5E
$GPGSA,A,3,16,14,29,03,,,,,,,,,5.5,1.8,5.2*36
$GPRMC,121442.000,A,3017.9483,N,12006.0723,E,0.28,34.92,150115,,,A*59
$GPGGA,121443.000,3017.9481,N,12006.0726,E,1,04,1.8,18.5,M,7.0,M,,0000*5C
$GPGSA,A,3,16,14,29,03,,,,,,,,,5.5,1.8,5.2*36
$GPRMC,121443.000,A,3017.9481,N,12006.0726,E,0.26,36.87,150115,,,A*57
$GPGGA,121444.000,3017.9478,N,12006.0728,E,1,04,1.8,18.0,M,7.0,M,,0000*56
$GPGSA,A,3,16,14,29,03,,,,,,,,,5.5,1.8,5.2*36
$GPRMC,121444.000,A,3017.9478,N,12006.0728,E,0.22,46.30,150115,,,A*57
$GPGGA,121445.000,3017.9476,N,12006.0731,E,1,04,1.8,17.3,M,7.0,M,,0000*5D
$GPGSA,A,3,16,14,29,03,,,,,,,,,5.5,1.8,5.2*36
$GPGSV,3,1,10,31,54,038,43,16,48,245,48,14,36,141,35,32,31,240,44*76
$GPGSV,3,2,10,29,24,052,35,03,21,283,35,27,14,187,29,23,10,318,22*75
$GPGSV,3,3,10,20,03,312,,25,03,048,*71
$GPRMC,121445.000,A,3017.9476,N,12006.0731,E,0.17,46.47,150115,,,A*56
$GPGGA,121446.000,3017.9473,N,12006.0733,E,1,04,1.8,16.6,M,7.0,M,,0000*5D
$GPGSA,A,3,16,14,29,03,,,,,,,,,5.5,1.8,5.2*36
$GPRMC,121446.000,A,3017.9473,N,12006.0733,E,0.16,56.66,150115,,,A*51
$GPGGA,121447.000,3017.9470,N,12006.0735,E,1,04,1.8,15.8,M,7.0,M,,0000*54
$GPGSA,A,3,16,14,29,03,,,,,,,,,5.5,1.8,5.1*35
$GPRMC,121447.000,A,3017.9470,N,12006.0735,E,0.13,64.30,150115,,,A*52
$GPGGA,121448.000,3017.9468,N,12006.0736,E,1,04,1.8,15.1,M,7.0,M,,0000*58
$GPGSA,A,3,16,14,29,03,,,,,,,,,5.5,1.8,5.1*35
$GPRMC,121448.000,A,3017.9468,N,12006.0736,E,0.12,62.05,150115,,,A*56
$GPGGA,121449.000,3017.9466,N,12006.0738,E,1,04,1.8,14.3,M,7.0,M,,0000*5A
$GPGSA,A,3,16,14,29,03,,,,,,,,,5.5,1.8,5.1*35
$GPRMC,121449.000,A,3017.9466,N,12006.0738,E,0.08,88.99,150115,,,A*5D
$GPGGA,121450.000,3017.9464,N,12006.0739,E,1,04,1.8,13.6,M,7.0,M,,0000*53
$GPGSA,A,3,16,14,29,03,,,,,,,,,5.5,1.8,5.1*35
$GPGSV,3,1,10,31,54,038,43,16,48,245,48,14,36,141,35,32,31,240,44*76
$GPGSV,3,2,10,29,24,052,36,03,21,283,35,27,14,187,29,23,10,318,22*76
$GPGSV,3,3,10,20,03,312,,25,03,048,*71
$GPRMC,121450.000,A,3017.9464,N,12006.0739,E,0.09,87.49,150115,,,A*55
$GPGGA,121451.000,3017.9463,N,12006.0740,E,1,04,1.8,13.0,M,7.0,M,,0000*5D
$GPGSA,A,3,16,14,29,03,,,,,,,,,5.4,1.8,5.1*34
$GPRMC,121451.000,A,3017.9463,N,12006.0740,E,0.07,102.75,150115,,,A*60
$GPGGA,121452.000,3017.9462,N,12006.0741,E,1,04,1.8,12.4,M,7.0,M,,0000*5B
$GPGSA,A,3,16,14,29,03,,,,,,,,,5.4,1.8,5.1*34
$GPRMC,121452.000,A,3017.9462,N,12006.0741,E,0.05,103.14,150115,,,A*67
$GPGGA,121453.000,3017.9462,N,12006.0741,E,1,04,1.8,12.0,M,7.0,M,,0000*5E
$GPGSA,A,3,16,14,29,03,,,,,,,,,5.4,1.8,5.1*34
$GPRMC,121453.000,A,3017.9462,N,12006.0741,E,0.06,117.52,150115,,,A*62
$GPGGA,121454.000,3017.9461,N,12006.0742,E,1,04,1.8,11.6,M,7.0,M,,0000*5C
$GPGSA,A,3,16,14,29,03,,,,,,,,,5.4,1.8,5.1*34
$GPRMC,121454.000,A,3017.9461,N,12006.0742,E,0.04,103.91,150115,,,A*6D
$GPGGA,121455.000,3017.9461,N,12006.0742,E,1,04,1.8,11.2,M,7.0,M,,0000*59
$GPGSA,A,3,16,14,29,03,,,,,,,,,5.4,1.8,5.1*34
$GPGSV,3,1,10,31,54,038,43,16,48,245,48,14,36,141,35,32,31,240,45*77
$GPGSV,3,2,10,29,24,052,36,03,21,283,36,27,14,187,29,23,10,318,22*75
$GPGSV,3,3,10,20,03,312,,25,03,048,*71
$GPRMC,121455.000,A,3017.9461,N,12006.0742,E,0.05,123.45,150115,,,A*66
$GPGGA,121456.000,3017.9461,N,12006.0743,E,1,04,1.8,11.0,M,7.0,M,,0000*59
$GPGSA,A,3,16,14,29,03,,,,,,,,,5.4,1.8,5.1*34
$GPRMC,121456.000,A,3017.9461,N,12006.0743,E,0.05,143.39,150115,,,A*69
$GPGGA,121457.000,3017.9461,N,12006.0743,E,1,04,1.8,10.9,M,7.0,M,,0000*50
$GPGSA,A,3,16,14,29,03,,,,,,,,,5.4,1.8,5.1*34
$GPRMC,121457.000,A,3017.9461,N,12006.0743,E,0.05,127.67,150115,,,A*61
$GPGGA,121458.000,3017.9462,N,12006.0743,E,1,04,1.8,10.8,M,7.0,M,,0000*5D
$GPGSA,A,3,16,14,29,03,,,,,,,,,5.4,1.8,5.1*34
$GPRMC,121458.000,A,3017.9462,N,12006.0743,E,0.05,95.33,150115,,,A*54
$GPGGA,121459.000,3017.9463,N,12006.0744,E,1,04,1.8,10.8,M,7.0,M,,0000*5A
$GPGSA,A,3,16,14,29,03,,,,,,,,,5.4,1.8,5.1*34
$GPRMC,121459.000,A,3017.9463,N,12006.0744,E,0.05,98.80,150115,,,A*56
$GPGGA,121500.000,3017.9463,N,12006.0744,E,1,04,1.8,10.9,M,7.0,M,,0000*56
$GPGSA,A,3,16,14,29,03,,,,,,,,,5.4,1.8,5.1*34
$GPGSV,3,1,10,31,54,038,43,16,48,245,48,14,36,141,36,32,31,240,45*74
$GPGSV,3,2,10,29,24,052,35,03,21,283,37,27,14,187,28,23,10,318,23*77
$GPGSV,3,3,10,20,03,312,,25,03,048,*71
$GPRMC,121500.000,A,3017.9463,N,12006.0744,E,0.04,78.02,150115,,,A*5E
$GPGGA,121501.000,3017.9464,N,12006.0745,E,1,04,1.8,11.0,M,7.0,M,,0000*59
$GPGSA,A,3,16,14,29,03,,,,,,,,,5.4,1.8,5.1*34
$GPRMC,121501.000,A,3017.9464,N,12006.0745,E,0.05,104.00,150115,,,A*60
$GPGGA,121502.000,3017.9465,N,12006.0745,E,1,04,1.8,11.1,M,7.0,M,,0000*5A
$GPGSA,A,3,16,14,29,03,,,,,,,,,5.4,1.8,5.1*34
$GPRMC,121502.000,A,3017.9465,N,12006.0745,E,0.05,57.48,150115,,,A*59
$GPGGA,121503.000,3017.9466,N,12006.0745,E,1,04,1.8,11.2,M,7.0,M,,0000*5B
$GPGSA,A,3,16,14,29,03,,,,,,,,,5.4,1.8,5.1*34
$GPRMC,121503.000,A,3017.9466,N,12006.0745,E,0.05,86.01,150115,,,A*5A
$GPGGA,121504.000,3017.9466,N,12006.0746,E,1,04,1.8,11.3,M,7.0,M,,0000*5E
$GPGSA,A,3,16,14,29,03,,,,,,,,,5.4,1.8,5.1*34
$GPRMC,121504.000,A,3017.9466,N,12006.0746,E,0.06,66.80,150115,,,A*5A
$GPGGA,121505.000,3017.9467,N,12006.0747,E,1,04,1.8,11.3,M,7.0,M,,0000*5F
$GPGSA,A,3,16,14,29,03,,,,,,,,,5.4,1.8,5.1*34
$GPGSV,3,1,10,31,54,038,43,16,48,245,47,14,36,141,35,32,31,240,44*79
$GPGSV,3,2,10,29,24,052,35,03,21,283,38,27,14,187,28,23,10,318,24*7F
$GPGSV,3,3,10,20,03,312,,25,03,048,*71
$GPRMC,121505.000,A,3017.9467,N,12006.0747,E,0.07,53.22,150115,,,A*54
$GPGGA,121506.000,3017.9468,N,12006.0747,E,1,04,1.8,11.4,M,7.0,M,,0000*54
$GPGSA,A,3,16,14,29,03,,,,,,,,,5.4,1.8,5.1*34
$GPRMC,121506.000,A,3017.9468,N,12006.0747,E,0.78,356.48,150115,,,A*6A
$GPGGA,121507.000,3017.9473,N,12006.0747,E,1,04,1.8,11.4,M,7.0,M,,0000*5F
$GPGSA,A,3,16,14,29,03,,,,,,,,,5.4,1.8,5.1*34
$GPRMC,121507.000,A,3017.9473,N,12006.0747,E,2.24,354.40,150115,,,A*60
$GPGGA,121508.000,3017.9483,N,12006.0746,E,1,04,1.8,11.6,M,7.0,M,,0000*5C
$GPGSA,A,3,16,14,29,03,,,,,,,,,5.4,1.8,5.1*34
$GPRMC,121508.000,A,3017.9483,N,12006.0746,E,4.03,353.72,150115,,,A*64
$GPGGA,121509.000,3017.9501,N,12006.0744,E,1,04,1.8,11.9,M,7.0,M,,0000*5B
$GPGSA,A,3,16,14,29,03,,,,,,,,,5.4,1.8,5.1*34
$GPRMC,121509.000,A,3017.9501,N,12006.0744,E,6.95,353.39,150115,,,A*6E
$GPGGA,121510.000,3017.9519,N,12006.0739,E,1,04,1.8,11.2,M,7.0,M,,0000*5B
$GPGSA,A,3,16,14,29,03,,,,,,,,,5.4,1.8,5.1*34
$GPGSV,3,1,10,31,54,038,43,16,48,245,46,14,36,141,35,32,31,240,44*78
$GPGSV,3,2,10,29,24,052,29,03,21,283,34,27,14,187,24,23,10,318,28*7E
$GPGSV,3,3,10,20,03,312,,25,03,048,*71
$GPRMC,121510.000,A,3017.9519,N,12006.0739,E,7.13,348.64,150115,,,A*68
$GPGGA,121511.000,3017.9532,N,12006.0733,E,1,04,1.8,10.3,M,7.0,M,,0000*59
$GPGSA,A,3,16,14,29,03,,,,,,,,,5.4,1.8,5.1*34
$GPRMC,121511.000,A,3017.9532,N,12006.0733,E,6.66,348.62,150115,,,A*6F
$GPGGA,121512.000,3017.9543,N,12006.0729,E,1,04,1.8,10.2,M,7.0,M,,0000*56
$GPGSA,A,3,16,14,29,03,,,,,,,,,5.4,1.8,5.1*34
$GPRMC,121512.000,A,3017.9543,N,12006.0729,E,4.62,346.88,150115,,,A*6D
