MC,002720.029,A,3015.2477,N,11958.0611,E,29.14,225.64,101215,,,A*5E
$GPGGA,002721.029,3015.2419,N,11958.0543,E,1,03,3.0,11.6,M,7.0,M,,0000*5F
$GPGSA,A,2,17,06,23,,,,,,,,,,3.2,3.0,1.0*31
$GPRMC,002721.029,A,3015.2419,N,11958.0543,E,28.73,225.35,101215,,,A*57
$GPGGA,002722.029,3015.2363,N,11958.0479,E,1,03,3.0,11.6,M,7.0,M,,0000*5E
$GPGSA,A,2,17,06,23,,,,,,,,,,3.2,3.0,1.0*31
$GPRMC,002722.029,A,3015.2363,N,11958.0479,E,28.23,225.25,101215,,,A*52
$GPGGA,002723.029,3015.2309,N,11958.0415,E,1,03,3.0,11.6,M,7.0,M,,0000*59
$GPGSA,A,2,17,06,23,,,,,,,,,,3.2,3.0,1.0*31
$GPRMC,002723.029,A,3015.2309,N,11958.0415,E,28.07,225.26,101215,,,A*50
$GPGGA,002724.029,3015.2255,N,11958.0354,E,1,03,3.0,11.6,M,7.0,M,,0000*54
$GPGSA,A,2,17,06,23,,,,,,,,,,3.2,3.0,1.0*31
$GPRMC,002724.029,A,3015.2255,N,11958.0354,E,27.33,225.14,101215,,,A*54
$GPGGA,002725.029,3015.2200,N,11958.0291,E,1,03,3.0,11.6,M,7.0,M,,0000*5D
$GPGSA,A,2,17,06,23,,,,,,,,,,3.2,3.0,1.0*31
$GPGSV,3,1,10,17,63,101,45,06,57,341,43,23,22,067,32,02,33,291,33*74
$GPGSV,3,2,10,09,32,108,44,19,32,117,42,12,22,310,32,28,19,179,40*79
$GPGSV,3,3,10,05,16,221,34,03,04,041,*7E
$GPRMC,002725.029,A,3015.2200,N,11958.0291,E,26.97,225.11,101215,,,A*57
$GPGGA,002726.029,3015.2145,N,11958.0229,E,1,03,3.0,11.6,M,7.0,M,,0000*5F
$GPGSA,A,2,17,06,23,,,,,,,,,,3.2,3.0,1.0*31
$GPRMC,002726.029,A,3015.2145,N,11958.0229,E,26.93,224.87,101215,,,A*5F
$GPGGA,002727.029,3015.2093,N,11958.0169,E,1,03,3.0,11.6,M,7.0,M,,0000*53
$GPGSA,A,2,17,06,23,,,,,,,,,,3.2,3.0,1.0*31
$GPRMC,002727.029,A,3015.2093,N,11958.0169,E,26.43,224.73,101215,,,A*55
$GPGGA,002728.029,3015.2040,N,11958.0110,E,1,03,3.0,11.6,M,7.0,M,,0000*5C
$GPGSA,A,2,17,06,23,,,,,,,,,,3.2,3.0,1.0*31
$GPRMC,002728.029,A,3015.2040,N,11958.0110,E,26.24,223.68,101215,,,A*56
$GPGGA,002729.029,3015.1983,N,11958.0057,E,1,03,3.0,11.6,M,7.0,M,,0000*5A
$GPGSA,A,2,17,06,23,,,,,,,,,,3.2,3.0,1.0*31
$GPRMC,002729.029,A,3015.1983,N,11958.0057,E,26.86,218.88,101215,,,A*5E
$GPGGA,002730.029,3015.1977,N,11958.0070,E,1,03,3.0,11.6,M,7.0,M,,0000*5C
$GPGSA,A,2,17,06,23,,,,,,,,,,3.2,3.0,1.0*31
$GPGSV,3,1,10,17,63,101,45,06,57,341,43,23,22,067,25,02,33,291,34*75
$GPGSV,3,2,10,09,32,108,44,19,32,117,42,12,22,310,33,28,19,179,23*7D
$GPGSV,3,3,10,05,16,221,34,03,04,041,16*79
$GPRMC,002730.029,A,3015.1977,N,11958.0070,E,27.75,214.50,101215,,,A*5C
$GPGGA,002731.029,3015.1875,N,11957.9980,E,1,03,3.0,11.6,M,7.0,M,,0000*5E
$GPGSA,A,2,17,06,23,,,,,,,,,,3.2,3.0,1.0*31
$GPRMC,002731.029,A,3015.1875,N,11957.9980,E,27.65,212.99,101215,,,A*5C
$GPGGA,002732.029,3015.1834,N,11957.9958,E,1,03,3.0,11.6,M,7.0,M,,0000*5D
$GPGSA,A,2,17,06,23,,,,,,,,,,3.2,3.0,1.0*31
$GPRMC,002732.029,A,3015.1834,N,11957.9958,E,28.20,213.58,101215,,,A*5D
$GPGGA,002733.029,3015.1775,N,11957.9909,E,1,03,3.0,11.6,M,7.0,M,,0000*52
$GPGSA,A,2,17,06,23,,,,,,,,,,3.2,3.0,1.0*31
$GPRMC,002733.029,A,3015.1775,N,11957.9909,E,28.22,215.84,101215,,,A*57
$GPGGA,002734.029,3015.1716,N,11957.9853,E,1,03,3.0,11.6,M,7.0,M,,0000*5E
$GPGSA,A,2,17,06,23,,,,,,,,,,3.2,3.0,1.0*31
$GPRMC,002734.029,A,3015.1716,N,11957.9853,E,27.73,218.92,101215,,,A*5A
$GPGGA,002735.029,3015.1652,N,11957.9785,E,1,03,3.0,11.6,M,7.0,M,,0000*5A
$GPGSA,A,2,17,06,23,,,,,,,,,,3.2,3.0,1.0*31
$GPGSV,3,1,10,17,63,101,44,06,57,341,42,23,22,067,27,02,33,291,35*76
$GPGSV,3,2,10,09,32,108,43,19,32,117,43,12,22,310,33,28,19,179,25*7D
$GPGSV,3,3,10,05,16,221,32,03,04,041,15*7C
$GPRMC,002735.029,A,3015.1652,N,11957.9785,E,28.05,222.52,101215,,,A*55
$GPGGA,002736.029,3015.1592,N,11957.9714,E,1,03,3.0,11.6,M,7.0,M,,0000*5E
$GPGSA,A,2,17,06,23,,,,,,,,,,3.2,3.0,1.0*31
$GPRMC,002736.029,A,3015.1592,N,11957.9714,E,28.29,225.82,101215,,,A*55
$GPGGA,002737.029,3015.1534,N,11957.9642,E,1,03,3.0,11.6,M,7.0,M,,0000*51
$GPGSA,A,2,17,06,23,,,,,,,,,,3.2,3.0,1.0*31
$GPRMC,002737.029,A,3015.1534,N,11957.9642,E,28.25,227.08,101215,,,A*56
$GPGGA,002738.029,3015.1476,N,11957.9573,E,1,03,3.0,11.6,M,7.0,M,,0000*58
$GPGSA,A,2,17,06,23,,,,,,,,,,3.2,3.0,1.0*31
$GPRMC,002738.029,A,3015.1476,N,11957.9573,E,28.27,226.49,101215,,,A*59
$GPGGA,002739.029,3015.1420,N,11957.9506,E,1,03,3.0,11.6,M,7.0,M,,0000*58
$GPGSA,A,2,17,06,23,,,,,,,,,,3.2,3.0,1.0*31
$GPRMC,002739.029,A,3015.1420,N,11957.9506,E,28.06,226.14,101215,,,A*52
$GPGGA,002740.029,3015.1365,N,11957.9440,E,1,03,3.0,11.6,M,7.0,M,,0000*53
$GPGSA,A,2,17,06,23,,,,,,,,,,3.2,3.0,1.0*31
$GPGSV,3,1,10,17,63,101,45,06,57,341,43,23,22,067,35,02,33,291,29*78
$GPGSV,3,2,10,09,32,108,40,19,32,117,37,12,22,310,33,28,19,179,*7A
$GPGSV,3,3,10,05,16,221,34,03,04,041,*7E
$GPRMC,002740.029,A,3015.1365,N,11957.9440,E,28.02,225.95,101215,,,A*57
$GPGGA,002741.029,3015.1308,N,11957.9374,E,1,03,3.0,11.6,M,7.0,M,,0000*59
$GPGSA,A,2,17,06,23,,,,,,,,,,3.2,3.0,1.0*31
$GPRMC,002741.029,A,3015.1308,N,11957.9374,E,27.88,224.80,101215,,,A*55
$GPGGA,002742.029,3015.1250,N,11957.9313,E,1,03,3.0,11.6,M,7.0,M,,0000*57
$GPGSA,A,2,17,06,23,,,,,,,,,,3.2,3.0,1.0*31
$GPRMC,002742.029,A,3015.1250,N,11957.9313,E,27.98,222.05,101215,,,A*51
$GPGGA,002743.029,3015.1141,N,11957.9203,E,1,03,3.0,11.6,M,7.0,M,,0000*55
$GPGSA,A,2,17,06,23,,,,,,,,,,3.2,3.0,1.0*31
$GPRMC,002743.029,A,3015.1141,N,11957.9203,E,23.48,217.74,101215,,,A*5A
$GPGGA,002744.029,3015.1098,N,11957.9173,E,1,03,3.0,11.6,M,7.0,M,,0000*53
$GPGSA,A,2,17,06,23,,,,,,,,,,3.2,3.0,1.0*31
$GPRMC,002744.029,A,3015.1098,N,11957.9173,E,12.58,204.91,101215,,,A*56
$GPGGA,002745.029,3015.0983,N,11957.9069,E,1,03,3.0,11.6,M,7.0,M,,0000*5A
$GPGSA,A,2,17,06,23,,,,,,,,,,3.2,3.0,1.0*31
$GPGSV,3,1,10,17,63,101,44,06,57,341,42,23,22,067,20,02,33,291,36*72
$GPGSV,3,2,10,09,32,108,30,19,32,117,39,12,22,310,33,28,19,179,*73
$GPGSV,3,3,10,05,16,221,29,03,04,041,*72
$GPRMC,002745.029,A,3015.0983,N,11957.9069,E,10.30,192.52,101215,,,A*50
$GPGGA,002746.029,3015.0944,N,11957.9054,E,1,03,3.0,11.6,M,7.0,M,,0000*5C
$GPGSA,A,2,17,06,23,,,,,,,,,,3.2,3.0,1.0*31
$GPRMC,002746.029,A,3015.0944,N,11957.9054,E,13.90,194.38,101215,,,A*55
$GPGGA,002747.029,3015.0871,N,11957.9010,E,1,03,3.0,11.6,M,7.0,M,,0000*5A
$GPGSA,A,2,17,06,23,,,,,,,,,,3.2,3.0,1.0*31
$GPRMC,002747.029,A,3015.0871,N,11957.9010,E,15.48,191.04,101215,,,A*5A
$GPGGA,002748.029,3015.0756,N,11957.8929,E,1,03,3.0,11.6,M,7.0,M,,0000*5D
$GPGSA,A,2,17,06,23,,,,,,,,,,3.2,3.0,1.0*31
$GPRMC,002748.029,A,3015.0756,N,11957.8929,E,16.52,185.42,101215,,,A*52
$GPGGA,002749.029,3015.0789,N,11957.9018,E,1,03,3.0,11.6,M,7.0,M,,0000*54
$GPGSA,A,2,17,06,23,,,,,,,,,,3.2,3.0,1.0*31
$GPRMC,002749.029,A,3015.0789,N,11957.9018,E,16.85,178.89,101215,,,A*54
$GPGGA,002750.029,3015.0802,N,11957.9084,E,1,04,4.8,26.5,M,7.0,M,,0000*5A
$GPGSA,A,3,17,06,23,09,,,,,,,,,7.7,4.8,6.0*30
$GPGSV,3,1,10,17,63,101,42,06,57,341,42,23,22,067,17,02,33,291,37*71
$GPGSV,3,2,10,09,32,108,40,19,32,117,26,12,22,310,33,28,19,179,36*7F
$GPGSV,3,3,10,05,16,221,35,03,04,041,*7F
$GPRMC,002750.029,A,3015.0802,N,11957.9084,E,13.54,148.85,101215,,,A*53
$GPGGA,002751.029,3015.0802,N,11957.9147,E,1,04,4.8,57.1,M,7.0,M,,0000*57
$GPGSA,A,3,17,06,23,09,,,,,,,,,7.7,4.8,6.0*30
$GPRMC,002751.029,A,3015.0802,N,11957.9147,E,14.98,152.66,101215,,,A*5D
$GPGGA,002752.029,3015.0807,N,11957.9194,E,1,04,4.8,76.9,M,7.0,M,,0000*54
$GPGSA,A,3,17,06,23,09,,,,,,,,,7.7,4.8,6.0*30
$GPRMC,002752.029,A,3015.0807,N,11957.9194,E,13.57,156.46,101215,,,A*57
$GPGGA,002753.000,3015.0725,N,11957.9160,E,1,03,3.0,76.2,M,7.0,M,,0000*59
$GPGSA,A,2,17,06,23,,,,,,,,,,3.2,3.0,1.0*31
$GPRMC,002753.000,A,3015.0725,N,11957.9160,E,17.33,159.34,101215,,,A*55
$GPGGA,002754.000,3015.0642,N,11957.9141,E,1,04,4.8,73.1,M,7.0,M,,0000*53
$GPGSA,A,3,17,06,23,09,,,,,,,,,7.7,4.8,6.0*30
$GPRMC,002754.000,A,3015.0642,N,11957.9141,E,18.83,162.09,101215,,,A*53
$GPGGA,002755.000,3015.0545,N,11957.9125,E,1,03,15.6,60.6,M,7.0,M,,0000*68
$GPGSA,A,2,17,06,09,,,,,,,,,,15.6,15.6,1.0*3B
$GPGSV,3,1,10,17,63,101,42,06,57,341,40,09,33,108,39,23,22,067,17*75
$GPGSV,3,2,10,02,33,291,33,19,32,117,38,12,23,310,38,28,19,179,35*74
$GPGSV,3,3,10,05,17,221,38,03,03,041,*74
$GPRMC,002755.000,A,3015.0545,N,11957.9125,E,21.40,159.19,101215,,,A*58
$GPGGA,002756.000,3015.0432,N,11957.9097,E,1,04,4.8,51.7,M,7.0,M,,0000*58
$GPGSA,A,3,17,06,23,09,,,,,,,,,7.7,4.8,6.0*30
$GPRMC,002756.000,A,3015.0432,N,11957.9097,E,23.75,162.45,101215,,,A*57
$GPGGA,002757.000,3015.0320,N,11957.9071,E,1,04,4.8,46.6,M,7.0,M,,0000*52
$GPGSA,A,3,17,06,23,09,,,,,,,,,7.7,4.8,6.0*30
$GPRMC,002757.000,A,3015.0320,N,11957.9071,E,25.71,167.62,101215,,,A*58
$GPGGA,002758.000,3015.0192,N,11957.9029,E,1,04,4.8,40.0,M,7.0,M,,0000*5B
$GPGSA,A,3,17,06,23,09,,,,,,,,,7.7,4.8,6.0*30
$GPRMC,002758.000,A,3015.0192,N,11957.9029,E,28.53,174.81,101215,,,A*53
$GPGGA,002759.000,3015.0100,N,11957.9023,E,1,04,4.8,37.6,M,7.0,M,,0000*5D
$GPGSA,A,3,17,06,23,09,,,,,,,,,7.8,4.8,6.1*3E
$GPRMC,002759.000,A,3015.0100,N,11957.9023,E,28.54,174.95,101215,,,A*51
$GPGGA,002800.000,3015.0006,N,11957.9014,E,1,04,4.8,34.5,M,7.0,M,,0000*5D
$GPGSA,A,3,17,06,23,09,,,,,,,,,7.8,4.8,6.1*3E
$GPGSV,3,1,10,17,63,101,42,06,57,341,40,09,33,108,38,23,22,067,31*70
$GPGSV,3,2,10,02,33,291,35,19,32,117,40,12,23,310,37,28,19,179,34*73
$GPGSV,3,3,10,05,17,221,33,03,03,041,*7F
$GPRMC,002800.000,A,3015.0006,N,11957.9014,E,27.84,175.54,101215,,,A*5F
$GPGGA,002801.000,3014.9848,N,11957.8914,E,1,05,1.5,12.7,M,7.0,M,,0000*51
$GPGSA,A,3,17,06,23,05,09,,,,,,,,2.6,1.5,2.1*3C
$GPRMC,002801.000,A,3014.9848,N,11957.8914,E,26.59,177.73,101215,,,A*5A
$GPGGA,002802.000,3014.9763,N,11957.8900,E,1,05,1.5,9.4,M,7.0,M,,0000*68
$GPGSA,A,3,17,06,23,05,09,,,,,,,,2.6,1.5,2.1*3C
$GPRMC,002802.000,A,3014.9763,N,11957.8900,E,26.51,181.95,101215,,,A*53
$GPGGA,002803.000,3014.9681,N,11957.8885,E,1,05,1.5,8.5,M,7.0,M,,0000*68
$GPGSA,A,3,17,06,23,05,09,,,,,,,,2.6,1.5,2.1*3C
$GPRMC,002803.000,A,3014.9681,N,11957.8885,E,27.52,185.67,101215,,,A*58
$GPGGA,002804.000,3014.9600,N,11957.8871,E,1,05,1.5,8.0,M,7.0,M,,0000*68
$GPGSA,A,3,17,06,23,05,09,,,,,,,,2.6,1.5,2.1*3C
$GPRMC,002804.000,A,3014.9600,N,11957.8871,E,28.34,186.55,101215,,,A*50
$GPGGA,002805.000,3014.9519,N,11957.8859,E,1,05,1.5,7.4,M,7.0,M,,0000*63
$GPGSA,A,3,17,06,23,05,09,,,,,,,,2.6,1.5,2.1*3C
$GPGSV,3,1,10,17,63,101,41,06,57,341,40,02,33,291,31,09,33,108,31*72
$GPGSV,3,2,10,19,32,117,30,12,23,310,36,23,22,067,25,28,19,179,29*70
$GPGSV,3,3,10,05,17,221,36,03,03,041,*7A
$GPRMC,002805.000,A,3014.9519,N,11957.8859,E,28.63,185.70,101215,,,A*56
$GPGGA,002806.000,3014.9436,N,11957.8846,E,1,05,1.5,7.8,M,7.0,M,,0000*6E
$GPGSA,A,3,17,06,23,05,09,,,,,,,,2.6,1.5,2.1*3C
$GPRMC,002806.000,A,3014.9436,N,11957.8846,E,28.57,187.18,101215,,,A*5C
$GPGGA,002807.000,3014.9357,N,11957.8831,E,1,05,1.5,7.8,M,7.0,M,,0000*6F
$GPGSA,A,3,17,06,23,05,09,,,,,,,,2.6,1.5,2.1*3C
$GPRMC,002807.000,A,3014.9357,N,11957.8831,E,28.63,188.97,101215,,,A*52
$GPGGA,002808.000,3014.9279,N,11957.8817,E,1,05,1.5,7.8,M,7.0,M,,0000*69
$GPGSA,A,3,17,06,23,05,09,,,,,,,,2.6,1.5,2.1*3C
$GPRMC,002808.000,A,3014.9279,N,11957.8817,E,27.71,190.71,101215,,,A*59
$GPGGA,002809.000,3014.9201,N,11957.8792,E,1,05,1.5,8.2,M,7.0,M,,0000*60
$GPGSA,A,3,17,06,23,05,09,,,,,,,,2.6,1.5,2.1*3C
$GPRMC,002809.000,A,3014.9201,N,11957.8792,E,28.34,197.87,101215,,,A*55
$GPGGA,002810.000,3014.9123,N,11957.8757,E,1,05,1.5,8.5,M,7.0,M,,0000*65
$GPGSA,A,3,17,06,23,05,09,,,,,,,,2.6,1.5,2.1*3C
$GPGSV,3,1,10,17,63,101,41,06,57,341,41,02,33,291,37,09,33,108,41*72
$GPGSV,3,2,10,19,32,117,35,12,23,310,24,23,22,067,40,28,19,179,34*79
$GPGSV,3,3,10,05,17,221,29,03,03,041,*74
$GPRMC,002810.000,A,3014.9123,N,11957.8757,E,29.96,203.14,101215,,,A*5A
$GPGGA,002811.000,3014.9044,N,11957.8717,E,1,05,1.5,8.8,M,7.0,M,,0000*6D
$GPGSA,A,3,17,06,23,05,09,,,,,,,,2.6,1.5,2.1*3C
$GPRMC,002811.000,A,3014.9044,N,11957.8717,E,30.79,204.30,101215,,,A*57
$GPGGA,002812.000,3014.8964,N,11957.8675,E,1,05,1.5,9.0,M,7.0,M,,0000*68
$GPGSA,A,3,17,06,23,05,09,,,,,,,,2.6,1.5,2.1*3C
$GPRMC,002812.000,A,3014.8964,N,11957.8675,E,30.91,204.66,101215,,,A*5E
$GPGGA,002813.000,3014.8884,N,11957.8633,E,1,05,1.5,9.4,M,7.0,M,,0000*60
$GPGSA,A,3,17,06,23,05,09,,,,,,,,2.6,1.5,2.1*3C
$GPRMC,002813.000,A,3014.8884,N,11957.8633,E,30.42,204.28,101215,,,A*56
$GPGGA,002814.000,3014.8807,N,11957.8592,E,1,05,1.5,9.9,M,7.0,M,,0000*69
$GPGSA,A,3,17,06,23,05,09,,,,,,,,2.6,1.5,2.1*3C
$GPRMC,002814.000,A,3014.8807,N,11957.8592,E,30.14,204.16,101215,,,A*5C
$GPGGA,002815.000,3014.8730,N,11957.8552,E,1,05,1.5,10.3,M,7.0,M,,0000*5D
$GPGSA,A,3,17,06,23,05,09,,,,,,,,2.6,1.5,2.1*3C
$GPGSV,3,1,10,17,63,101,41,06,57,341,43,02,33,291,36,09,33,108,41*71
$GPGSV,3,2,10,19,32,117,36,12,23,310,24,23,22,067,39,28,19,179,31*71
$GPGSV,3,3,10,05,17,221,30,03,03,041,*7C
$GPRMC,002815.000,A,3014.8730,N,11957.8552,E,29.63,204.37,101215,,,A*51
$GPGGA,002816.000,3014.8654,N,11957.8513,E,1,05,1.5,10.6,M,7.0,M,,0000*5D
$GPGSA,A,3,17,06,23,05,09,,,,,,,,2.6,1.5,2.1*3C
$GPRMC,002816.000,A,3014.8654,N,11957.8513,E,29.48,204.49,101215,,,A*54
$GPGGA,002817.000,3014.8579,N,11957.8473,E,1,05,1.5,10.9,M,7.0,M,,0000*58
$GPGSA,A,3,17,06,23,05,09,,,,,,,,2.6,1.5,2.1*3C
$GPRMC,002817.000,A,3014.8579,N,11957.8473,E,29.19,204.00,101215,,,A*57
$GPGGA,002818.000,3014.8505,N,11957.8436,E,1,05,1.5,11.2,M,7.0,M,,0000*57
$GPGSA,A,3,17,06,23,05,09,,,,,,,,2.6,1.5,2.1*3C
$GPRMC,002818.000,A,3014.8505,N,11957.8436,E,28.32,203.19,101215,,,A*55
$GPGGA,002819.000,3014.8432,N,11957.8400,E,1,05,1.5,11.5,M,7.0,M,,0000*51
$GPGSA,A,3,17,06,23,05,09,,,,,,,,2.6,1.5,2.1*3C
$GPRMC,002819.000,A,3014.8432,N,11957.8400,E,27.76,203.17,101215,,,A*55
$GPGGA,002820.000,3014.8360,N,11957.8365,E,1,04,1.8,11.8,M,7.0,M,,0000*5E
$GPGSA,A,3,17,06,23,05,,,,,,,,,2.8,1.8,2.1*36
$GPGSV,3,1,10,17,63,101,40,06,57,341,43,02,33,291,36,09,33,108,15*71
$GPGSV,3,2,10,19,32,117,18,12,23,310,36,23,22,067,19,28,19,179,21*7D
$GPGSV,3,3,10,05,17,221,36,03,03,041,*7A
$GPRMC,002820.000,A,3014.8360,N,11957.8365,E,27.57,203.15,101215,,,A*5A
$GPGGA,002821.000,3014.8290,N,11957.8330,E,1,04,1.8,12.3,M,7.0,M,,0000*59
$GPGSA,A,3,17,06,23,05,,,,,,,,,2.8,1.8,2.1*36
$GPRMC,002821.000,A,3014.8290,N,11957.8330,E,26.78,203.43,101215,,,A*5A
$GPGGA,002822.000,3014.8222,N,11957.8296,E,1,04,1.8,12.7,M,7.0,M,,0000*5A
$GPGSA,A,3,17,06,23,05,,,,,,,,,2.8,1.8,2.1*36
$GPRMC,002822.000,A,3014.8222,N,11957.8296,E,25.96,203.98,101215,,,A*58
$GPGGA,002823.000,3014.8158,N,11957.8263,E,1,04,1.8,12.6,M,7.0,M,,0000*5E
$GPGSA,A,3,17,06,23,05,,,,,,,,,2.8,1.8,2.1*36
$GPRMC,002823.000,A,3014.8158,N,11957.8263,E,24.98,205.13,101215,,,A*57
$GPGGA,002824.000,3014.8097,N,11957.8230,E,1,05,1.5,12.8,M,7.0,M,,0000*5F
$GPGSA,A,3,17,06,23,05,09,,,,,,,,2.6,1.5,2.1*3C
$GPRMC,002824.000,A,3014.8097,N,11957.8230,E,23.69,205.45,101215,,,A*5E
$GPGGA,002825.000,3014.8038,N,11957.8197,E,1,05,1.5,13.4,M,7.0,M,,0000*58
$GPGSA,A,3,17,06,23,05,09,,,,,,,,2.6,1.5,2.1*3C
$GPGSV,3,1,10,17,63,101,41,06,57,341,43,02,33,291,36,09,33,108,21*77
$GPGSV,3,2,10,19,32,117,14,12,23,310,32,23,22,067,14,28,19,179,22*7B
$GPGSV,3,3,10,05,17,221,33,03,03,041,*7F
$GPRMC,002825.000,A,3014.8038,N,11957.8197,E,22.36,204.20,101215,,,A*5D
$GPGGA,002826.000,3014.7983,N,11957.8168,E,1,05,1.5,14.2,M,7.0,M,,0000*5C
$GPGSA,A,3,17,06,23,05,09,,,,,,,,2.6,1.5,2.1*3C
$GPRMC,002826.000,A,3014.7983,N,11957.8168,E,20.27,203.84,101215,,,A*53
$GPGGA,002827.000,3014.7935,N,11957.8141,E,1,05,1.5,14.4,M,7.0,M,,0000*5D
$GPGSA,A,3,17,06,23,05,09,,,,,,,,2.6,1.5,2.1*3C
$GPRMC,002827.000,A,3014.7935,N,11957.8141,E,19.44,206.76,101215,,,A*53
$GPGGA,002828.000,3014.7894,N,11957.8112,E,1,05,1.5,14.9,M,7.0,M,,0000*53
$GPGSA,A,3,17,06,23,05,09,,,,,,,,2.6,1.5,2.1*3C
$GPRMC,002828.000,A,3014.7894,N,11957.8112,E,19.24,206.59,101215,,,A*5B
$GPGGA,002829.000,3014.7846,N,11957.8076,E,1,05,1.5,17.4,M,7.0,M,,0000*50
$GPGSA,A,3,17,06,23,05,09,,,,,,,,2.6,1.5,2.1*3C
$GPRMC,002829.000,A,3014.7846,N,11957.8076,E,18.79,208.15,101215,,,A*59
$GPGGA,002830.000,3014.7808,N,11957.8045,E,1,05,1.5,19.6,M,7.0,M,,0000*5E
$GPGSA,A,3,17,06,23,05,09,,,,,,,,2.6,1.5,2.1*3C
$GPGSV,3,1,10,17,63,101,43,06,57,341,42,02,33,291,30,09,33,108,43*76
$GPGSV,3,2,10,19,32,117,43,12,23,310,29,23,22,067,26,28,19,179,23*73
$GPGSV,3,3,10,05,17,221,21,03,03,041,*7C
$GPRMC,002830.000,A,3014.7808,N,11957.8045,E,16.49,211.83,101215,,,A*51
$GPGGA,002831.000,3014.7811,N,11957.8041,E,1,05,1.5,20.8,M,7.0,M,,0000*57
$GPGSA,A,3,17,06,23,05,09,,,,,,,,2.6,1.5,2.1*3C
$GPRMC,002831.000,A,3014.7811,N,11957.8041,E,11.08,225.37,101215,,,A*56
$GPGGA,002832.000,3014.7809,N,11957.8003,E,1,05,1.5,22.3,M,7.0,M,,0000*52
$GPGSA,A,3,17,06,23,05,09,,,,,,,,2.6,1.5,2.1*3C
$GPRMC,002832.000,A,3014.7809,N,11957.8003,E,9.89,246.26,101215,,,A*6F
$GPGGA,002833.000,3014.7811,N,11957.7964,E,1,05,1.5,23.6,M,7.0,M,,0000*59
$GPGSA,A,3,17,06,23,05,09,,,,,,,,2.6,1.5,2.1*3C
$GPRMC,002833.000,A,3014.7811,N,11957.7964,E,9.98,268.61,101215,,,A*6F
$GPGGA,002834.000,3014.7830,N,11957.7936,E,1,05,1.5,24.6,M,7.0,M,,0000*5D
$GPGSA,A,3,17,06,23,05,09,,,,,,,,2.6,1.5,2.1*3C
$GPRMC,002834.000,A,3014.7830,N,11957.7936,E,10.99,294.03,101215,,,A*52
$GPGGA,002835.000,3014.7852,N,11957.7905,E,1,05,1.5,25.3,M,7.0,M,,0000*5C
$GPGSA,A,3,17,06,23,05,09,,,,,,,,2.6,1.5,2.1*3C
$GPGSV,3,1,10,17,63,101,43,06,57,341,41,02,33,291,38,09,33,108,30*79
$GPGSV,3,2,10,19,32,117,35,12,23,310,36,23,22,067,35,28,19,179,22*7F
$GPGSV,3,3,10,05,17,221,20,03,03,041,*7D
$GPRMC,002835.000,A,3014.7852,N,11957.7905,E,12.20,307.25,101215,,,A*58
$GPGGA,002836.000,3014.7875,N,11957.7874,E,1,05,1.5,24.9,M,7.0,M,,0000*56
$GPGSA,A,3,17,06,23,05,09,,,,,,,,2.6,1.5,2.1*3C
$GPRMC,002836.000,A,3014.7875,N,11957.7874,E,13.95,312.20,101215,,,A*57
$GPGGA,002837.000,3014.7904,N,11957.7842,E,1,05,1.5,25.3,M,7.0,M,,0000*5E
$GPGSA,A,3,17,06,23,05,09,,,,,,,,2.6,1.5,2.1*3C
$GPRMC,002837.000,A,3014.7904,N,11957.7842,E,14.60,314.21,101215,,,A*5E
$GPGGA,002838.000,3014.7933,N,11957.7810,E,1,04,5.0,25.3,M,7.0,M,,0000*52
$GPGSA,A,3,17,06,23,09,,,,,,,,,8.0,5.0,6.3*32
$GPRMC,002838.000,A,3014.7933,N,11957.7810,E,13.78,312.16,101215,,,A*5E
$GPGGA,002839.000,3014.7957,N,11957.7779,E,1,04,5.0,25.1,M,7.0,M,,0000*53
$GPGSA,A,3,17,06,23,09,,,,,,,,,8.0,5.0,6.3*32
$GPRMC,002839.000,A,3014.7957,N,11957.7779,E,12.28,310.08,101215,,,A*54
$GPGGA,002840.000,3014.7974,N,11957.7749,E,1,04,5.0,25.8,M,7.0,M,,0000*56
$GPGSA,A,3,17,06,23,09,,,,,,,,,8.0,5.0,6.3*32
$GPGSV,3,1,10,17,63,102,42,06,57,342,42,02,34,292,38,09,33,107,29*78
$GPGSV,3,2,10,19,32,117,35,12,23,310,25,23,22,067,34,28,19,179,*7C
$GPGSV,3,3,10,05,17,221,14,03,03,041,*7A
$GPRMC,002840.000,A,3014.7974,N,11957.7749,E,10.45,307.62,101215,,,A*5B
$GPGGA,002841.000,3014.7988,N,11957.7723,E,1,04,5.0,26.6,M,7.0,M,,0000*55
$GPGSA,A,3,17,06,23,09,,,,,,,,,8.0,5.0,6.3*32
$GPRMC,002841.000,A,3014.7988,N,11957.7723,E,8.36,305.85,101215,,,A*63
$GPGGA,002842.000,3014.7997,N,11957.7705,E,1,04,5.0,27.6,M,7.0,M,,0000*5D
$GPGSA,A,3,17,06,23,09,,,,,,,,,8.0,5.0,6.3*32
$GPRMC,002842.000,A,3014.7997,N,11957.7705,E,5.52,311.48,101215,,,A*61
$GPGGA,002843.000,3014.8010,N,11957.7702,E,1,05,1.5,29.1,M,7.0,M,,0000*5B
$GPGSA,A,3,17,06,23,05,09,,,,,,,,2.6,1.5,2.1*3C
$GPRMC,002843.000,A,3014.8010,N,11957.7702,E,2.81,319.73,101215,,,A*67
$GPGGA,002844.000,3014.8010,N,11957.7695,E,1,05,1.5,28.7,M,7.0,M,,0000*54
$GPGSA,A,3,17,06,23,05,09,,,,,,,,2.6,1.5,2.1*3C
$GPRMC,002844.000,A,3014.8010,N,11957.7695,E,0.68,314.37,101215,,,A*67
$GPGGA,002845.000,3014.8009,N,11957.7693,E,1,05,1.5,28.5,M,7.0,M,,0000*59
$GPGSA,A,3,17,06,23,05,09,,,,,,,,2.6,1.5,2.1*3C
$GPGSV,3,1,10,17,63,102,43,06,57,342,44,02,34,292,38,09,33,107,36*71
$GPGSV,3,2,10,19,32,117,35,12,23,310,32,23,22,067,34,28,19,179,20*78
$GPGSV,3,3,10,05,17,221,21,03,03,041,21*7F
$GPRMC,002845.000,A,3014.8009,N,11957.7693,E,0.20,70.13,101215,,,A*53
$GPGGA,002846.000,3014.8008,N,11957.7693,E,1,05,1.5,28.6,M,7.0,M,,0000*58
$GPGSA,A,3,17,06,23,05,09,,,,,,,,2.6,1.5,2.1*3C
$GPRMC,002846.000,A,3014.8008,N,11957.7693,E,0.16,81.34,101215,,,A*5F
$GPGGA,002847.000,3014.8006,N,11957.7692,E,1,05,1.5,28.6,M,7.0,M,,0000*56
$GPGSA,A,3,17,06,23,05,09,,,,,,,,2.6,1.5,2.1*3C
$GPRMC,002847.000,A,3014.8006,N,11957.7692,E,0.23,58.40,101215,,,A*50
$GPGGA,002848.000,3014.8001,N,11957.7687,E,1,05,1.5,28.7,M,7.0,M,,0000*5B
$GPGSA,A,3,17,06,23,05,09,,,,,,,,2.6,1.5,2.1*3C
$GPRMC,002848.000,A,3014.8001,N,11957.7687,E,0.22,310.77,101215,,,A*66
$GPGGA,002849.000,3014.7996,N,11957.7679,E,1,05,1.5,28.9,M,7.0,M,,0000*5D
$GPGSA,A,3,17,06,23,05,09,,,,,,,,2.6,1.5,2.1*3C
$GPRMC,002849.000,A,3014.7996,N,11957.7679,E,1.52,258.98,101215,,,A*64
$GPGGA,002850.000,3014.7995,N,11957.7673,E,1,05,1.5,29.5,M,7.0,M,,0000*51
$GPGSA,A,3,17,06,23,05,09,,,,,,,,2.6,1.5,2.1*3C
$GPGSV,3,1,10,17,63,102,44,06,57,342,45,02,34,292,35,09,33,107,37*7B
$GPGSV,3,2,10,19,32,117,31,12,23,310,30,23,22,067,31,28,19,179,22*79
$GPGSV,3,3,10,05,17,221,21,03,03,041,21*7F
$GPRMC,002850.000,A,3014.7995,N,11957.7673,E,1.57,309.13,101215,,,A*66
$GPGGA,002851.000,3014.7995,N,11957.7665,E,1,05,1.5,29.4,M,7.0,M,,0000*56
$GPGSA,A,3,17,06,23,05,09,,,,,,,,2.6,1.5,2.1*3C
$GPRMC,002851.000,A,3014.7995,N,11957.7665,E,1.99,290.94,101215,,,A*6C
$GPGGA,002852.000,3014.7995,N,11957.7659,E,1,05,1.5,29.4,M,7.0,M,,0000*5A
$GPGSA,A,3,17,06,23,05,09,,,,,,,,2.6,1.5,2.1*3C
$GPRMC,002852.000,A,3014.7995,N,11957.7659,E,1.68,245.35,101215,,,A*6D
$GPGGA,002853.000,3014.7991,N,11957.7657,E,1,04,5.0,29.2,M,7.0,M,,0000*57
$GPGSA,A,3,17,06,23,09,,,,,,,,,8.1,5.0,6.3*33
$GPRMC,002853.000,A,3014.7991,N,11957.7657,E,2.98,187.14,101215,,,A*64
$GPGGA,002854.000,3014.7976,N,11957.7657,E,1,04,5.0,28.9,M,7.0,M,,0000*53
$GPGSA,A,3,17,06,23,09,,,,,,,,,8.1,5.0,6.3*33
$GPRMC,002854.000,A,3014.7976,N,11957.7657,E,6.53,174.87,101215,,,A*6F
$GPGGA,002855.000,3014.7962,N,11957.7663,E,1,04,5.1,28.0,M,7.0,M,,0000*58
$GPGSA,A,3,17,06,23,09,,,,,,,,,8.1,5.1,6.3*32
$GPGSV,3,1,10,17,63,102,24,06,57,342,32,02,34,292,13,09,33,107,25*7A
$GPGSV,3,2,10,19,32,117,23,12,23,310,27,23,22,067,40,28,19,179,12*79
$GPGSV,3,3,10,05,17,221,,03,03,041,*7F
$GPRMC,002855.000,A,3014.7962,N,11957.7663,E,6.30,153.16,101215,,,A*64
$GPGGA,002856.000,3014.7947,N,11957.7678,E,1,04,5.1,27.3,M,7.0,M,,0000*5A
$GPGSA,A,3,17,06,23,09,,,,,,,,,8.1,5.1,6.4*35
$GPRMC,002856.000,A,3014.7947,N,11957.7678,E,6.77,137.87,101215,,,A*63
$GPGGA,002857.000,3014.7931,N,11957.7698,E,1,04,5.1,26.1,M,7.0,M,,0000*57
$GPGSA,A,3,17,06,23,09,,,,,,,,,8.1,5.1,6.4*35
$GPRMC,002857.000,A,3014.7931,N,11957.7698,E,7.83,139.91,101215,,,A*6E
$GPGGA,002858.000,3014.7915,N,11957.7716,E,1,04,5.1,25.3,M,7.0,M,,0000*58
$GPGSA,A,3,17,06,23,09,,,,,,,,,8.1,5.1,6.4*35
$GPRMC,002858.000,A,3014.7915,N,11957.7716,E,7.57,138.42,101215,,,A*66
$GPGGA,002859.000,3014.7899,N,11957.7732,E,6,00,50.0,25.2,M,7.0,M,,0000*69
$GPGSA,A,2,,,,,,,,,,,,,50.0,50.0,50.0*06
$GPRMC,002859.000,A,3014.7899,N,11957.7732,E,7.57,138.42,101215,,,E*60
$GPGGA,002900.000,3014.7883,N,11957.7748,E,6,00,50.0,25.2,M,7.0,M,,0000*62
$GPGSA,A,2,,,,,,,,,,,,,50.0,50.0,50.0*06
$GPGSV,3,1,10,17,63,102,12,06,57,342,09,02,34,292,,09,33,107,11*72
$GPGSV,3,2,10,19,32,117,13,12,23,310,16,23,22,067,16,28,19,179,24*7E
$GPGSV,3,3,10,05,17,221,,03,03,041,16*78
$GPRMC,002900.000,A,3014.7883,N,11957.7748,E,7.57,138.42,101215,,,E*6B
$GPGGA,002901.000,3014.7867,N,11957.7765,E,6,00,50.0,25.1,M,7.0,M,,0000*65
$GPGSA,A,2,,,,,,,,,,,,,50.0,50.0,50.0*06
$GPRMC,002901.000,A,3014.7867,N,11957.7765,E,7.57,138.42,101215,,,E*6F
$GPGGA,002902.000,3014.7852,N,11957.7781,E,6,00,50.0,25.1,M,7.0,M,,0000*6A
$GPGSA,A,2,,,,,,,,,,,,,50.0,50.0,50.0*06
$GPRMC,002902.000,A,3014.7852,N,11957.7781,E,7.57,138.42,101215,,,E*60
$GPGGA,002903.000,3014.7836,N,11957.7797,E,6,00,50.0,25.0,M,7.0,M,,0000*6F
$GPGSA,A,2,,,,,,,,,,,,,50.0,50.0,50.0*06
$GPRMC,002903.000,A,3014.7836,N,11957.7797,E,7.57,138.42,101215,,,E*64
$GPGGA,002904.000,3014.7820,N,11957.7813,E,6,00,50.0,25.0,M,7.0,M,,0000*6C
$GPGSA,A,2,,,,,,,,,,,,,50.0,50.0,50.0*06
$GPRMC,002904.000,A,3014.7820,N,11957.7813,E,7.57,138.42,101215,,,E*67
$GPGGA,002905.000,3014.7804,N,11957.7829,E,6,00,50.0,24.9,M,7.0,M,,0000*6A
$GPGSA,A,2,,,,,,,,,,,,,50.0,50.0,50.0*06
$GPGSV,3,1,10,17,63,102,,06,57,342,10,02,34,292,30,09,33,107,*7A
$GPGSV,3,2,10,19,32,117,,12,23,310,13,23,22,067,07,28,19,179,28*75
$GPGSV,3,3,10,05,17,221,31,03,03,041,*7D
$GPRMC,002905.000,A,3014.7804,N,11957.7829,E,7.57,138.42,101215,,,E*69
$GPGGA,002906.000,3014.7562,N,11957.7897,E,1,04,2.4,24.5,M,7.0,M,,0000*5D
$GPGSA,A,3,05,06,17,09,,,,,,,,,4.9,2.4,4.2*33
$GPRMC,002906.000,A,3014.7562,N,11957.7897,E,17.51,154.36,101215,,,A*58
$GPGGA,002907.000,3014.7502,N,11957.7901,E,1,04,2.4,22.2,M,7.0,M,,0000*55
$GPGSA,A,3,05,06,17,09,,,,,,,,,4.9,2.4,4.2*33
$GPRMC,002907.000,A,3014.7502,N,11957.7901,E,16.77,153.23,101215,,,A*57
$GPGGA,002908.000,3014.7465,N,11957.7907,E,1,04,2.4,20.1,M,7.0,M,,0000*5D
$GPGSA,A,3,05,06,17,09,,,,,,,,,4.9,2.4,4.2*33
$GPRMC,002908.000,A,3014.7465,N,11957.7907,E,13.42,152.03,101215,,,A*5E
$GPGGA,002909.000,3014.7437,N,11957.7917,E,1,05,1.5,20.5,M,7.0,M,,0000*5D
$GPGSA,A,3,05,06,23,17,09,,,,,,,,2.6,1.5,2.1*3C
$GPRMC,002909.000,A,3014.7437,N,11957.7917,E,10.11,151.91,101215,,,A*54
$GPGGA,002910.000,3014.7412,N,11957.7924,E,1,05,1.5,21.7,M,7.0,M,,0000*51
$GPGSA,A,3,05,06,23,17,09,,,,,,,,2.6,1.5,2.1*3C
$GPGSV,3,1,10,17,63,102,46,06,57,342,43,02,34,292,31,09,33,107,36*7A
$GPGSV,3,2,10,19,32,117,38,12,23,310,34,23,22,067,22,28,19,179,33*76
$GPGSV,3,3,10,05,17,221,33,03,03,041,*7F
$GPRMC,002910.000,A,3014.7412,N,11957.7924,E,8.10,145.33,101215,,,A*6E
$GPGGA,002911.000,3014.7393,N,11957.7936,E,1,05,1.5,21.3,M,7.0,M,,0000*59
$GPGSA,A,3,05,06,23,17,09,,,,,,,,2.6,1.5,2.1*3C
$GPRMC,002911.000,A,3014.7393,N,11957.7936,E,9.03,145.27,101215,,,A*64
$GPGGA,002912.000,3014.7374,N,11957.7954,E,1,05,1.5,19.7,M,7.0,M,,0000*58
$GPGSA,A,3,05,06,23,17,09,,,,,,,,2.6,1.5,2.1*3C
$GPRMC,002912.000,A,3014.7374,N,11957.7954,E,10.44,148.82,101215,,,A*53
$GPGGA,002913.000,3014.7350,N,11957.7975,E,1,05,1.5,19.1,M,7.0,M,,0000*5A
$GPGSA,A,3,05,06,23,17,09,,,,,,,,2.6,1.5,2.1*3C
$GPRMC,002913.000,A,3014.7350,N,11957.7975,E,12.15,150.56,101215,,,A*51
$GPGGA,002914.000,3014.7321,N,11957.7997,E,1,05,1.5,20.1,M,7.0,M,,0000*5D
$GPGSA,A,3,05,06,23,17,09,,,,,,,,2.6,1.5,2.1*3C
$GPRMC,002914.000,A,3014.7321,N,11957.7997,E,13.63,150.14,101215,,,A*5A
$GPGGA,002915.000,3014.7291,N,11957.8021,E,1,05,1.5,20.4,M,7.0,M,,0000*58
$GPGSA,A,3,05,06,23,17,09,,,,,,,,2.6,1.5,2.1*3C
$GPGSV,3,1,10,17,63,102,46,06,57,342,43,02,34,292,25,09,33,107,32*7B
$GPGSV,3,2,10,19,32,117,38,12,23,310,27,23,22,067,36,28,19,179,25*76
$GPGSV,3,3,10,05,17,221,28,03,03,041,*75
$GPRMC,002915.000,A,3014.7291,N,11957.8021,E,14.19,152.12,101215,,,A*54
$GPGGA,002916.000,3014.7256,N,11957.8040,E,1,05,1.5,20.2,M,7.0,M,,0000*51
$GPGSA,A,3,05,06,23,17,09,,,,,,,,2.6,1.5,2.1*3C
$GPRMC,002916.000,A,3014.7256,N,11957.8040,E,13.79,152.00,101215,,,A*59
$GPGGA,002917.000,3014.7219,N,11957.8059,E,1,05,1.5,20.6,M,7.0,M,,0000*57
$GPGSA,A,3,05,06,23,17,09,,,,,,,,2.6,1.5,2.1*3C
$GPRMC,002917.000,A,3014.7219,N,11957.8059,E,14.99,153.45,101215,,,A*52
$GPGGA,002918.000,3014.7178,N,11957.8082,E,1,05,1.5,20.9,M,7.0,M,,0000*55
$GPGSA,A,3,05,06,23,17,09,,,,,,,,2.6,1.5,2.1*3C
$GPRMC,002918.000,A,3014.7178,N,11957.8082,E,16.78,150.37,101215,,,A*54
$GPGGA,002919.000,3014.7135,N,11957.8112,E,1,06,1.4,20.5,M,7.0,M,,0000*5B
$GPGSA,A,3,05,06,23,17,09,19,,,,,,,2.5,1.4,2.1*36
$GPRMC,002919.000,A,3014.7135,N,11957.8112,E,18.50,145.72,101215,,,A*55
$GPGGA,002920.000,3014.7093,N,11957.8150,E,1,06,1.4,20.3,M,7.0,M,,0000*5C
$GPGSA,A,3,05,06,23,17,09,19,,,,,,,2.5,1.4,2.1*36
$GPGSV,3,1,10,17,63,103,44,06,57,342,44,02,34,292,31,09,33,107,40*7F
$GPGSV,3,2,10,19,32,117,39,12,23,310,31,23,22,067,31,28,19,179,24*76
$GPGSV,3,3,10,05,17,221,33,03,03,041,*7F
$GPRMC,002920.000,A,3014.7093,N,11957.8150,E,19.83,141.47,101215,,,A*59
$GPGGA,002921.000,3014.7048,N,11957.8194,E,1,06,1.4,20.8,M,7.0,M,,0000*58
$GPGSA,A,3,05,06,23,17,09,19,,,,,,,2.5,1.4,2.1*36
$GPRMC,002921.000,A,3014.7048,N,11957.8194,E,21.02,138.78,101215,,,A*56
$GPGGA,002922.000,3014.7003,N,11957.8242,E,1,06,1.4,20.6,M,7.0,M,,0000*52
$GPGSA,A,3,05,06,23,17,09,19,,,,,,,2.5,1.4,2.1*36
$GPRMC,002922.000,A,3014.7003,N,11957.8242,E,22.30,140.36,101215,,,A*55
$GPGGA,002923.000,3014.6957,N,11957.8291,E,1,06,1.4,20.4,M,7.0,M,,0000*56
$GPGSA,A,3,05,06,23,17,09,19,,,,,,,2.5,1.4,2.1*36
$GPRMC,002923.000,A,3014.6957,N,11957.8291,E,22.56,135.69,101215,,,A*5B
$GPGGA,002924.000,3014.6915,N,11957.8344,E,1,06,1.4,20.1,M,7.0,M,,0000*5B
$GPGSA,A,3,05,06,23,17,09,19,,,,,,,2.5,1.4,2.1*36
$GPRMC,002924.000,A,3014.6915,N,11957.8344,E,21.90,130.78,101215,,,A*5F
$GPGGA,002925.000,3014.6878,N,11957.8399,E,1,06,1.4,19.8,M,7.0,M,,0000*53
$GPGSA,A,3,05,06,23,17,09,19,,,,,,,2.5,1.4,2.1*36
$GPGSV,3,1,10,17,63,103,45,06,57,342,44,02,34,292,29,09,33,107,40*77
$GPGSV,3,2,10,19,32,117,39,12,23,310,32,23,22,067,37,28,19,179,27*70
$GPGSV,3,3,10,05,17,221,30,03,03,041,*7C
$GPRMC,002925.000,A,3014.6878,N,11957.8399,E,21.25,128.75,101215,,,A*5E
$GPGGA,002926.000,3014.6843,N,11957.8455,E,1,06,1.4,19.5,M,7.0,M,,0000*52
$GPGSA,A,3,05,06,23,17,09,19,,,,,,,2.5,1.4,2.1*36
$GPRMC,002926.000,A,3014.6843,N,11957.8455,E,21.38,126.36,101215,,,A*57
$GPGGA,002927.000,3014.6809,N,11957.8512,E,1,06,1.4,19.1,M,7.0,M,,0000*5B
$GPGSA,A,3,05,06,23,17,09,19,,,,,,,2.5,1.4,2.1*36
$GPRMC,002927.000,A,3014.6809,N,11957.8512,E,22.10,125.57,101215,,,A*57
$GPGGA,002928.000,3014.6775,N,11957.8573,E,1,06,1.4,18.7,M,7.0,M,,0000*50
$GPGSA,A,3,05,06,23,17,09,19,,,,,,,2.5,1.4,2.1*36
$GPRMC,002928.000,A,3014.6775,N,11957.8573,E,22.60,122.81,101215,,,A*50
$GPGGA,002929.000,3014.6742,N,11957.8636,E,1,06,1.4,18.5,M,7.0,M,,0000*55
$GPGSA,A,3,05,06,23,17,09,19,,,,,,,2.5,1.4,2.1*36
$GPRMC,002929.000,A,3014.6742,N,11957.8636,E,22.99,121.43,101215,,,A*5C
$GPGGA,002930.000,3014.6712,N,11957.8703,E,1,06,1.4,18.4,M,7.0,M,,0000*5E
$GPGSA,A,3,05,06,23,17,09,19,,,,,,,2.5,1.4,2.1*36
$GPGSV,3,1,10,17,63,103,45,06,57,342,45,02,34,292,35,09,33,107,40*7B
$GPGSV,3,2,10,19,32,117,35,12,23,310,34,23,22,067,40,28,19,179,24*79
$GPGSV,3,3,10,05,17,221,30,03,03,041,*7C
$GPRMC,002930.000,A,3014.6712,N,11957.8703,E,23.34,121.67,101215,,,A*56
$GPGGA,002931.000,3014.6681,N,11957.8773,E,1,06,1.4,18.8,M,7.0,M,,0000*5F
$GPGSA,A,3,05,06,23,17,09,19,,,,,,,2.5,1.4,2.1*36
$GPRMC,002931.000,A,3014.6681,N,11957.8773,E,23.62,120.81,101215,,,A*51
$GPGGA,002932.000,3014.6648,N,11957.8837,E,1,06,1.4,18.7,M,7.0,M,,0000*59
$GPGSA,A,3,05,06,23,17,09,19,,,,,,,2.5,1.4,2.1*36
$GPRMC,002932.000,A,3014.6648,N,11957.8837,E,22.76,122.91,101215,,,A*5F
$GPGGA,002933.000,3014.6615,N,11957.8899,E,1,06,1.4,18.8,M,7.0,M,,0000*5B
$GPGSA,A,3,05,06,23,17,09,19,,,,,,,2.5,1.4,2.1*36
$GPRMC,002933.000,A,3014.6615,N,11957.8899,E,21.81,124.38,101215,,,A*5C
$GPGGA,002934.000,3014.6581,N,11957.8955,E,1,06,1.4,18.5,M,7.0,M,,0000*5E
$GPGSA,A,3,05,06,23,17,09,19,,,,,,,2.5,1.4,2.1*36
$GPRMC,002934.000,A,3014.6581,N,11957.8955,E,21.02,126.00,101215,,,A*56
$GPGGA,002935.000,3014.6546,N,11957.9005,E,1,06,1.4,17.8,M,7.0,M,,0000*5B
$GPGSA,A,3,05,06,23,17,09,19,,,,,,,2.5,1.4,2.1*36
$GPGSV,3,1,10,17,63,103,46,06,57,342,45,02,34,292,35,09,33,107,40*78
$GPGSV,3,2,10,19,32,117,38,12,23,310,34,23,22,067,36,28,19,179,34*74
$GPGSV,3,3,10,05,17,221,24,03,03,041,*79
$GPRMC,002935.000,A,3014.6546,N,11957.9005,E,20.24,128.38,101215,,,A*51
$GPGGA,002936.000,3014.6511,N,11957.9054,E,1,06,1.4,17.5,M,7.0,M,,0000*53
$GPGSA,A,3,05,06,23,17,09,19,,,,,,,2.5,1.4,2.1*36
$GPRMC,002936.000,A,3014.6511,N,11957.9054,E,19.53,130.17,101215,,,A*5A
$GPGGA,002937.000,3014.6474,N,11957.9098,E,1,06,1.4,17.1,M,7.0,M,,0000*54
$GPGSA,A,3,05,06,23,17,09,19,,,,,,,2.5,1.4,2.1*36
$GPRMC,002937.000,A,3014.6474,N,11957.9098,E,18.78,135.60,101215,,,A*54
$GPGGA,002938.000,3014.6436,N,11957.9137,E,1,06,1.4,16.8,M,7.0,M,,0000*51
$GPGSA,A,3,05,06,23,17,09,19,,,,,,,2.5,1.4,2.1*36
$GPRMC,002938.000,A,3014.6436,N,11957.9137,E,18.23,139.56,101215,,,A*5E
$GPGGA,002939.000,3014.6397,N,11957.9172,E,1,06,1.4,16.4,M,7.0,M,,0000*51
$GPGSA,A,3,05,06,23,17,09,19,,,,,,,2.5,1.4,2.1*36
$GPRMC,002939.000,A,3014.6397,N,11957.9172,E,17.69,142.90,101215,,,A*55
$GPGGA,002940.000,3014.6357,N,11957.9203,E,1,06,1.4,16.0,M,7.0,M,,0000*52
$GPGSA,A,3,05,06,23,17,09,19,,,,,,,2.5,1.4,2.1*36
$GPGSV,3,1,10,17,63,103,45,06,57,342,44,02,34,292,29,09,33,107,40*77
$GPGSV,3,2,10,19,32,117,40,12,23,310,28,23,22,067,36,28,19,179,35*77
$GPGSV,3,3,10,05,17,221,33,03,03,041,*7F
$GPRMC,002940.000,A,3014.6357,N,11957.9203,E,17.16,146.96,101215,,,A*58
$GPGGA,002941.000,3014.6316,N,11957.9229,E,1,06,1.4,15.7,M,7.0,M,,0000*5A
$GPGSA,A,3,05,06,23,17,09,19,,,,,,,2.5,1.4,2.1*36
$GPRMC,002941.000,A,3014.6316,N,11957.9229,E,16.51,151.23,101215,,,A*5E
$GPGGA,002942.000,3014.6275,N,11957.9251,E,1,06,1.4,15.3,M,7.0,M,,0000*56
$GPGSA,A,3,05,06,23,17,09,19,,,,,,,2.5,1.4,2.1*36
$GPRMC,002942.000,A,3014.6275,N,11957.9251,E,15.99,157.20,101215,,,A*54
$GPGGA,002943.000,3014.6233,N,11957.9268,E,1,06,1.4,14.9,M,7.0,M,,0000*54
$GPGSA,A,3,05,06,23,17,09,19,,,,,,,2.5,1.4,2.1*36
$GPRMC,002943.000,A,3014.6233,N,11957.9268,E,15.79,159.14,101215,,,A*5A
$GPGGA,002944.000,3014.6192,N,11957.9284,E,1,06,1.4,14.3,M,7.0,M,,0000*53
$GPGSA,A,3,05,06,23,17,09,19,,,,,,,2.5,1.4,2.1*36
$GPRMC,002944.000,A,3014.6192,N,11957.9284,E,15.31,159.70,101215,,,A*59
$GPGGA,002945.000,3014.6152,N,11957.9299,E,1,06,1.4,13.9,M,7.0,M,,0000*5F
$GPGSA,A,3,05,06,23,17,09,19,,,,,,,2.5,1.4,2.1*36
$GPGSV,3,1,10,17,63,103,44,06,57,342,42,02,34,292,34,09,33,107,40*7C
$GPGSV,3,2,10,19,32,117,32,12,23,310,32,23,22,067,40,28,19,179,35*78
$GPGSV,3,3,10,05,17,221,33,03,03,041,*7F
$GPRMC,002945.000,A,3014.6152,N,11957.9299,E,14.96,160.49,101215,,,A*54
$GPGGA,002946.000,3014.6113,N,11957.9313,E,1,06,1.4,13.7,M,7.0,M,,0000*54
$GPGSA,A,3,05,06,23,17,09,19,,,,,,,2.5,1.4,2.1*36
$GPRMC,002946.000,A,3014.6113,N,11957.9313,E,14.71,162.28,101215,,,A*5D
$GPGGA,002947.000,3014.6072,N,11957.9324,E,1,06,1.4,13.3,M,7.0,M,,0000*53
$GPGSA,A,3,05,06,23,17,09,19,,,,,,,2.5,1.4,2.1*36
$GPRMC,002947.000,A,3014.6072,N,11957.9324,E,15.09,167.46,101215,,,A*5D
$GPGGA,002948.000,3014.6029,N,11957.9332,E,1,06,1.4,13.0,M,7.0,M,,0000*56
$GPGSA,A,3,05,06,23,17,09,19,,,,,,,2.5,1.4,2.1*36
$GPRMC,002948.000,A,3014.6029,N,11957.9332,E,16.32,171.26,101215,,,A*51
$GPGGA,002949.000,3014.5983,N,11957.9336,E,1,06,1.4,12.5,M,7.0,M,,0000*5D
$GPGSA,A,3,05,06,23,17,09,19,,,,,,,2.5,1.4,2.1*36
$GPRMC,002949.000,A,3014.5983,N,11957.9336,E,16.81,176.19,101215,,,A*5D
$GPGGA,002950.000,3014.5933,N,11957.9334,E,1,06,1.4,11.8,M,7.0,M,,0000*52
$GPGSA,A,3,05,06,23,17,09,19,,,,,,,2.5,1.4,2.1*36
$GPGSV,3,1,10,17,63,103,43,06,57,342,42,02,34,292,34,09,33,107,40*7B
$GPGSV,3,2,10,19,32,117,41,12,23,310,29,23,22,067,33,28,19,179,36*71
$GPGSV,3,3,10,05,17,221,31,03,03,041,*7D
$GPRMC,002950.000,A,3014.5933,N,11957.9334,E,18.35,181.16,101215,,,A*5A
$GPGGA,002951.000,3014.5880,N,11957.9331,E,1,06,1.4,11.2,M,7.0,M,,0000*55
$GPGSA,A,3,05,06,23,17,09,19,,,,,,,2.5,1.4,2.1*36
$GPRMC,002951.000,A,3014.5880,N,11957.9331,E,19.16,181.93,101215,,,A*5A
$GPGGA,002952.000,3014.5828,N,11957.9328,E,1,06,1.4,10.2,M,7.0,M,,0000*5D
$GPGSA,A,3,05,06,23,17,09,19,,,,,,,2.5,1.4,2.1*36
$GPRMC,002952.000,A,3014.5828,N,11957.9328,E,18.51,179.16,101215,,,A*5B
$GPGGA,002953.000,3014.5776,N,11957.9330,E,1,06,1.4,9.6,M,7.0,M,,0000*6D
$GPGSA,A,3,05,06,23,17,09,19,,,,,,,2.5,1.4,2.1*36
$GPRMC,002953.000,A,3014.5776,N,11957.9330,E,18.31,176.19,101215,,,A*51
$GPGGA,002954.000,3014.5724,N,11957.9332,E,1,06,1.4,8.9,M,7.0,M,,0000*61
$GPGSA,A,3,05,06,23,17,09,19,,,,,,,2.5,1.4,2.1*36
$GPRMC,002954.000,A,3014.5724,N,11957.9332,E,19.20,176.65,101215,,,A*59
$GPGGA,002955.000,3014.5671,N,11957.9337,E,1,06,1.4,8.6,M,7.0,M,,0000*6B
$GPGSA,A,3,05,06,23,17,09,19,,,,,,,2.5,1.4,2.1*36
$GPGSV,3,1,10,17,63,103,43,06,57,342,41,02,34,292,35,09,33,107,37*79
$GPGSV,3,2,10,19,32,117,40,12,23,310,32,23,22,067,32,28,19,179,19*76
$GPGSV,3,3,10,05,17,221,30,03,03,041,*7C
$GPRMC,002955.000,A,3014.5671,N,11957.9337,E,19.41,173.06,101215,,,A*5B
$GPGGA,002956.000,3014.5617,N,11957.9346,E,1,06,1.4,8.3,M,7.0,M,,0000*6B
$GPGSA,A,3,05,06,23,17,09,19,,,,,,,2.5,1.4,2.1*36
$GPRMC,002956.000,A,3014.5617,N,11957.9346,E,19.35,169.04,101215,,,A*54
$GPGGA,002957.000,3014.5563,N,11957.9358,E,1,06,1.4,8.1,M,7.0,M,,0000*67
$GPGSA,A,3,05,06,23,17,09,19,,,,,,,2.5,1.4,2.1*36
$GPRMC,002957.000,A,3014.5563,N,11957.9358,E,19.30,164.86,101215,,,A*58
$GPGGA,002958.000,3014.5511,N,11957.9376,E,1,06,1.4,8.0,M,7.0,M,,0000*60
$GPGSA,A,3,05,06,23,17,09,19,,,,,,,2.5,1.4,2.1*36
$GPRMC,002958.000,A,3014.5511,N,11957.9376,E,19.52,159.80,101215,,,A*52
$GPGGA,002959.000,3014.5464,N,11957.9397,E,1,06,1.4,8.1,M,7.0,M,,0000*6C
$GPGSA,A,3,05,06,23,17,09,19,,,,,,,2.5,1.4,2.1*36
$GPRMC,002959.000,A,3014.5464,N,11957.9397,E,16.90,156.08,101215,,,A*51
$GPGGA,003000.000,3014.5425,N,11957.9418,E,1,06,1.4,8.2,M,7.0,M,,0000*6E
$GPGSA,A,3,05,06,23,17,09,19,,,,,,,2.5,1.4,2.1*36
$GPGSV,3,1,10,17,63,103,44,06,57,342,41,02,34,292,28,09,33,107,34*71
$GPGSV,3,2,10,19,32,117,37,12,23,310,32,23,22,067,41,28,19,179,26*7E
$GPGSV,3,3,10,05,17,221,35,03,03,041,*79
$GPRMC,003000.000,A,3014.5425,N,11957.9418,E,14.56,153.51,101215,,,A*51
$GPGGA,003001.000,3014.5390,N,11957.9439,E,1,06,1.4,8.4,M,7.0,M,,0000*63
$GPGSA,A,3,05,06,23,17,09,19,,,,,,,2.5,1.4,2.1*36
$GPRMC,003001.000,A,3014.5390,N,11957.9439,E,14.15,150.98,101215,,,A*5B
$GPGGA,003002.000,3014.5355,N,11957.9461,E,1,06,1.4,8.3,M,7.0,M,,0000*63
$GPGSA,A,3,05,06,23,17,09,19,,,,,,,2.5,1.4,2.1*36
$GPRMC,003002.000,A,3014.5355,N,11957.9461,E,14.48,150.82,101215,,,A*5F
$GPGGA,003003.000,3014.5318,N,11957.9485,E,1,06,1.4,8.3,M,7.0,M,,0000*61
$GPGSA,A,3,05,06,23,17,09,19,,,,,,,2.5,1.4,2.1*36
$GPRMC,003003.000,A,3014.5318,N,11957.9485,E,15.75,148.15,101215,,,A*55
$GPGGA,003004.000,3014.5279,N,11957.9513,E,1,06,1.4,8.3,M,7.0,M,,0000*6E
$GPGSA,A,3,05,06,23,17,09,19,,,,,,,2.5,1.4,2.1*36
$GPRMC,003004.000,A,3014.5279,N,11957.9513,E,17.73,146.70,101215,,,A*53
$GPGGA,003005.000,3014.5236,N,11957.9546,E,1,06,1.4,8.3,M,7.0,M,,0000*64
$GPGSA,A,3,05,06,23,17,09,19,,,,,,,2.5,1.4,2.1*36
$GPGSV,3,1,10,17,63,103,45,06,57,342,43,02,34,292,28,09,33,107,41*70
$GPGSV,3,2,10,19,32,117,39,12,23,310,23,23,22,067,40,28,19,179,31*77
$GPGSV,3,3,10,05,17,221,36,03,03,041,*7A
$GPRMC,003005.000,A,3014.5236,N,11957.9546,E,19.00,144.83,101215,,,A*5D
$GPGGA,003006.000,3014.5193,N,11957.9582,E,1,06,1.4,8.2,M,7.0,M,,0000*62
$GPGSA,A,3,05,06,23,17,09,19,,,,,,,2.5,1.4,2.1*36
$GPRMC,003006.000,A,3014.5193,N,11957.9582,E,19.53,142.76,101215,,,A*50
$GPGGA,003007.000,3014.5150,N,11957.9620,E,1,06,1.4,8.2,M,7.0,M,,0000*67
$GPGSA,A,3,05,06,23,17,09,19,,,,,,,2.5,1.4,2.1*36
$GPRMC,003007.000,A,3014.5150,N,11957.9620,E,19.20,141.33,101215,,,A*53
$GPGGA,003008.000,3014.5108,N,11957.9658,E,1,06,1.4,8.1,M,7.0,M,,0000*69
$GPGSA,A,3,05,06,23,17,09,19,,,,,,,2.5,1.4,2.1*36
$GPRMC,003008.000,A,3014.5108,N,11957.9658,E,19.03,141.07,101215,,,A*58
$GPGGA,003009.000,3014.5064,N,11957.9695,E,1,06,1.4,8.1,M,7.0,M,,0000*62
$GPGSA,A,3,05,06,23,17,09,19,,,,,,,2.5,1.4,2.1*36
$GPRMC,003009.000,A,3014.5064,N,11957.9695,E,19.97,144.29,101215,,,A*57
$GPGGA,003010.000,3014.5017,N,11957.9733,E,1,06,1.4,8.1,M,7.0,M,,0000*63
$GPGSA,A,3,05,06,23,17,09,19,,,,,,,2.5,1.4,2.1*36
$GPGSV,3,1,10,17,63,103,45,06,57,342,43,02,34,292,27,09,33,107,41*7F
$GPGSV,3,2,10,19,32,117,40,12,23,310,22,23,22,067,35,28,19,179,33*78
$GPGSV,3,3,10,05,17,221,35,03,03,041,*79
$GPRMC,003010.000,A,3014.5017,N,11957.9733,E,21.45,145.47,101215,,,A*5B
$GPGGA,003011.000,3014.4967,N,11957.9774,E,1,06,1.4,8.2,M,7.0,M,,0000*6D
$GPGSA,A,3,05,06,23,17,09,19,,,,,,,2.5,1.4,2.1*36
$GPRMC,003011.000,A,3014.4967,N,11957.9774,E,22.42,143.68,101215,,,A*59
$GPGGA,003012.000,3014.4916,N,11957.9818,E,1,06,1.4,8.1,M,7.0,M,,0000*6E
$GPGSA,A,3,05,06,23,17,09,19,,,,,,,2.5,1.4,2.1*36
$GPRMC,003012.000,A,3014.4916,N,11957.9818,E,23.04,142.59,101215,,,A*59
$GPGGA,003013.000,3014.4865,N,11957.9863,E,1,06,1.4,8.2,M,7.0,M,,0000*65
$GPGSA,A,3,05,06,23,17,09,19,,,,,,,2.5,1.4,2.1*36
$GPRMC,003013.000,A,3014.4865,N,11957.9863,E,23.07,142.11,101215,,,A*5E
$GPGGA,003014.000,3014.4814,N,11957.9908,E,1,06,1.4,8.2,M,7.0,M,,0000*68
$GPGSA,A,3,05,06,23,17,09,19,,,,,,,2.5,1.4,2.1*36
$GPRMC,003014.000,A,3014.4814,N,11957.9908,E,23.10,142.12,101215,,,A*56
$GPGGA,003015.000,3014.4763,N,11957.9954,E,1,06,1.4,8.0,M,7.0,M,,0000*6D
$GPGSA,A,3,05,06,23,17,09,19,,,,,,,2.5,1.4,2.1*36
$GPGSV,3,1,10,17,63,103,45,06,57,342,43,02,34,292,27,09,33,107,40*7E
$GPGSV,3,2,10,19,32,117,40,12,23,310,22,23,22,067,34,28,19,179,34*7E
$GPGSV,3,3,10,05,17,221,35,03,03,041,*79
$GPRMC,003015.000,A,3014.4763,N,11957.9954,E,23.08,142.24,101215,,,A*5D
$GPGGA,003016.000,3014.4713,N,11957.9999,E,1,06,1.4,7.7,M,7.0,M,,0000*60
$GPGSA,A,3,05,06,23,17,09,19,,,,,,,2.5,1.4,2.1*36
$GPRMC,003016.000,A,3014.4713,N,11957.9999,E,23.20,141.91,101215,,,A*5F
$GPGGA,003017.000,3014.4662,N,11958.0045,E,1,06,1.4,7.5,M,7.0,M,,0000*6A
$GPGSA,A,3,05,06,23,17,09,19,,,,,,,2.5,1.4,2.1*36
$GPRMC,003017.000,A,3014.4662,N,11958.0045,E,23.12,142.64,101215,,,A*5F
$GPGGA,003018.000,3014.4609,N,11958.0088,E,1,06,1.4,7.8,M,7.0,M,,0000*64
$GPGSA,A,3,05,06,23,17,09,19,,,,,,,2.5,1.4,2.1*36
$GPRMC,003018.000,A,3014.4609,N,11958.0088,E,23.10,144.36,101215,,,A*5F
$GPGGA,003019.000,3014.4556,N,11958.0132,E,1,06,1.4,7.8,M,7.0,M,,0000*6C
$GPGSA,A,3,05,06,23,17,09,19,,,,,,,2.5,1.4,2.1*36
$GPRMC,003019.000,A,3014.4556,N,11958.0132,E,23.60,143.98,101215,,,A*53
$GPGGA,003020.000,3014.4502,N,11958.0177,E,1,06,1.4,8.4,M,7.0,M,,0000*65
$GPGSA,A,3,05,06,23,17,09,19,,,,,,,2.5,1.4,2.1*36
$GPGSV,3,1,10,17,63,103,45,06,57,342,43,02,34,292,27,09,33,107,40*7E
$GPGSV,3,2,10,19,32,117,40,12,23,310,23,23,22,067,24,28,19,179,34*7E
$GPGSV,3,3,10,05,17,221,35,03,03,041,*79
$GPRMC,003020.000,A,3014.4502,N,11958.0177,E,23.58,142.78,101215,,,A*5D
$GPGGA,003021.000,3014.4450,N,11958.0223,E,1,06,1.4,9.2,M,7.0,M,,0000*67
$GPGSA,A,3,05,06,23,17,09,19,,,,,,,2.5,1.4,2.1*36
$GPRMC,003021.000,A,3014.4450,N,11958.0223,E,22.89,140.61,101215,,,A*5F
$GPGGA,003022.000,3014.4399,N,11958.0267,E,1,06,1.4,9.7,M,7.0,M,,0000*63
$GPGSA,A,3,05,06,23,17,09,19,,,,,,,2.5,1.4,2.1*36
$GPRMC,003022.000,A,3014.4399,N,11958.0267,E,22.57,143.14,101215,,,A*5C
$GPGGA,003023.000,3014.4347,N,11958.0308,E,1,06,1.4,10.3,M,7.0,M,,0000*55
$GPGSA,A,3,05,06,23,17,09,19,,,,,,,2.5,1.4,2.1*36
$GPRMC,003023.000,A,3014.4347,N,11958.0308,E,22.32,147.92,101215,,,A*5F
$GPGGA,003024.000,3014.4292,N,11958.0346,E,1,06,1.4,10.7,M,7.0,M,,0000*55
$GPGSA,A,3,05,06,23,17,09,19,,,,,,,2.5,1.4,2.1*36
$GPRMC,003024.000,A,3014.4292,N,11958.0346,E,23.37,150.00,101215,,,A*52
$GPGGA,003025.000,3014.4235,N,11958.0387,E,1,06,1.4,11.0,M,7.0,M,,0000*52
$GPGSA,A,3,05,06,23,17,09,19,,,,,,,2.5,1.4,2.1*36
$GPGSV,3,1,10,17,63,103,45,06,57,342,44,02,34,292,27,09,33,107,35*7B
$GPGSV,3,2,10,19,32,117,38,12,23,310,23,23,22,067,28,28,19,179,31*78
$GPGSV,3,3,10,05,17,221,35,03,03,041,*79
$GPRMC,003025.000,A,3014.4235,N,11958.0387,E,24.33,145.56,101215,,,A*57
$GPGGA,003026.000,3014.4178,N,11958.0431,E,1,06,1.4,11.3,M,7.0,M,,0000*52
$GPGSA,A,3,05,06,23,17,09,19,,,,,,,2.5,1.4,2.1*36
$GPRMC,003026.000,A,3014.4178,N,11958.0431,E,25.24,145.86,101215,,,A*5E
$GPGGA,003027.000,3014.4118,N,11958.0475,E,1,06,1.4,11.8,M,7.0,M,,0000*5E
$GPGSA,A,3,05,06,23,17,09,19,,,,,,,2.5,1.4,2.1*36
$GPRMC,003027.000,A,3014.4118,N,11958.0475,E,25.48,147.15,101215,,,A*5B
$GPGGA,003028.000,3014.4060,N,11958.0523,E,1,06,1.4,12.9,M,7.0,M,,0000*5F
$GPGSA,A,3,05,06,23,17,09,19,,,,,,,2.5,1.4,2.1*36
$GPRMC,003028.000,A,3014.4060,N,11958.0523,E,24.99,145.86,101215,,,A*5D
$GPGGA,003029.000,3014.4000,N,11958.0565,E,1,06,1.4,13.9,M,7.0,M,,0000*5B
$GPGSA,A,3,05,06,23,17,09,19,,,,,,,2.5,1.4,2.1*36
$GPRMC,003029.000,A,3014.4000,N,11958.0565,E,24.77,147.34,101215,,,A*53
$GPGGA,003030.000,3014.3940,N,11958.0604,E,1,06,1.4,14.2,M,7.0,M,,0000*51
$GPGSA,A,3,05,06,23,17,09,19,,,,,,,2.5,1.4,2.1*36
$GPGSV,3,1,10,17,63,103,46,06,57,342,44,02,34,292,32,09,33,107,36*7F
$GPGSV,3,2,10,19,32,117,39,12,23,310,31,23,22,067,26,28,19,179,23*77
$GPGSV,3,3,10,05,17,221,31,03,03,041,*7D
$GPRMC,003030.000,A,3014.3940,N,11958.0604,E,24.46,149.68,101215,,,A*50
$GPGGA,003031.000,3014.3876,N,11958.0638,E,1,06,1.4,14.8,M,7.0,M,,0000*51
$GPGSA,A,3,05,06,23,17,09,19,,,,,,,2.5,1.4,2.1*36
$GPRMC,003031.000,A,3014.3876,N,11958.0638,E,24.45,152.66,101215,,,A*5D
$GPGGA,003032.000,3014.3816,N,11958.0673,E,1,06,1.4,15.0,M,7.0,M,,0000*52
$GPGSA,A,3,05,06,23,17,09,19,,,,,,,2.5,1.4,2.1*36
$GPRMC,003032.000,A,3014.3816,N,11958.0673,E,24.06,153.53,101215,,,A*57
$GPGGA,003033.000,3014.3757,N,11958.0706,E,1,06,1.4,15.4,M,7.0,M,,0000*5E
$GPGSA,A,3,05,06,23,17,09,19,,,,,,,2.5,1.4,2.1*36
$GPRMC,003033.000,A,3014.3757,N,11958.0706,E,23.63,156.71,101215,,,A*5E
$GPGGA,003034.000,3014.3703,N,11958.0745,E,1,06,1.4,16.7,M,7.0,M,,0000*5F
$GPGSA,A,3,05,06,23,17,09,19,,,,,,,2.5,1.4,2.1*36
$GPRMC,003034.000,A,3014.3703,N,11958.0745,E,23.63,157.31,101215,,,A*5A
$GPGGA,003035.000,3014.3641,N,11958.0770,E,1,06,1.4,16.3,M,7.0,M,,0000*5B
$GPGSA,A,3,05,06,23,17,09,19,,,,,,,2.5,1.4,2.1*36
$GPGSV,3,1,10,17,63,103,45,06,57,342,43,02,34,292,31,09,33,107,41*78
$GPGSV,3,2,10,19,32,117,39,12,23,310,32,23,22,067,47,28,19,179,34*75
$GPGSV,3,3,10,05,17,221,33,03,03,041,*7F
$GPRMC,003035.000,A,3014.3641,N,11958.0770,E,23.52,158.04,101215,,,A*51
$GPGGA,003036.000,3014.3578,N,11958.0795,E,1,06,1.4,15.9,M,7.0,M,,0000*53
$GPGSA,A,3,05,06,23,17,09,19,,,,,,,2.5,1.4,2.1*36
$GPRMC,003036.000,A,3014.3578,N,11958.0795,E,23.46,157.86,101215,,,A*50
$GPGGA,003037.000,3014.3515,N,11958.0821,E,1,06,1.4,15.6,M,7.0,M,,0000*56
$GPGSA,A,3,05,06,23,17,09,19,,,,,,,2.5,1.4,2.1*36
$GPRMC,003037.000,A,3014.3515,N,11958.0821,E,23.86,158.22,101215,,,A*57
$GPGGA,003038.000,3014.3451,N,11958.0847,E,1,06,1.4,15.2,M,7.0,M,,0000*5C
$GPGSA,A,3,05,06,23,17,09,19,,,,,,,2.5,1.4,2.1*36
$GPRMC,003038.000,A,3014.3451,N,11958.0847,E,24.18,157.36,101215,,,A*53
$GPGGA,003039.000,3014.3388,N,11958.0875,E,1,06,1.4,14.9,M,7.0,M,,0000*55
$GPGSA,A,3,05,06,23,17,09,19,,,,,,,2.5,1.4,2.1*36
$GPRMC,003039.000,A,3014.3388,N,11958.0875,E,24.13,157.21,101215,,,A*5D
$GPGGA,003040.000,3014.3324,N,11958.0902,E,1,06,1.4,14.4,M,7.0,M,,0000*51
$GPGSA,A,3,05,06,23,17,09,19,,,,,,,2.5,1.4,2.1*36
$GPGSV,3,1,10,17,63,103,45,06,57,342,42,02,34,292,31,09,33,107,42*7A
$GPGSV,3,2,10,19,32,117,39,12,23,310,32,23,22,067,45,28,19,179,35*76
$GPGSV,3,3,10,05,17,221,28,03,03,041,*75
$GPRMC,003040.000,A,3014.3324,N,11958.0902,E,24.04,157.35,101215,,,A*57
$GPGGA,003041.000,3014.3262,N,11958.0929,E,1,06,1.4,14.0,M,7.0,M,,0000*5E
$GPGSA,A,3,05,06,23,17,09,19,,,,,,,2.5,1.4,2.1*36
$GPRMC,003041.000,A,3014.3262,N,11958.0929,E,23.53,157.20,101215,,,A*5D
$GPGGA,003042.000,3014.3202,N,11958.0956,E,1,06,1.4,13.7,M,7.0,M,,0000*53
$GPGSA,A,3,05,06,23,17,09,19,,,,,,,2.5,1.4,2.1*36
$GPRMC,003042.000,A,3014.3202,N,11958.0956,E,22.73,157.65,101215,,,A*52
$GPGGA,003043.000,3014.3144,N,11958.0981,E,1,06,1.4,13.4,M,7.0,M,,0000*5A
$GPGSA,A,3,05,06,23,17,09,19,,,,,,,2.5,1.4,2.1*36
$GPRMC,003043.000,A,3014.3144,N,11958.0981,E,21.78,157.41,101215,,,A*56
$GPGGA,003044.000,3014.3089,N,11958.1007,E,1,06,1.4,13.3,M,7.0,M,,0000*5C
$GPGSA,A,3,05,06,23,17,09,19,,,,,,,2.5,1.4,2.1*36
$GPRMC,003044.000,A,3014.3089,N,11958.1007,E,20.98,157.68,101215,,,A*53
$GPGGA,003045.000,3014.3036,N,11958.1031,E,1,06,1.4,13.3,M,7.0,M,,0000*5C
$GPGSA,A,3,05,06,23,17,09,19,,,,,,,2.5,1.4,2.1*36
$GPGSV,3,1,10,17,63,103,45,06,57,342,42,02,34,292,31,09,33,107,42*7A
$GPGSV,3,2,10,19,32,117,39,12,23,310,33,23,22,067,46,28,19,179,35*74
$GPGSV,3,3,10,05,17,221,27,03,03,041,*7A
$GPRMC,003045.000,A,3014.3036,N,11958.1031,E,19.94,157.43,101215,,,A*5C
$GPGGA,003046.000,3014.2986,N,11958.1054,E,1,06,1.4,13.0,M,7.0,M,,0000*5C
$GPGSA,A,3,05,06,23,17,09,19,,,,,,,2.5,1.4,2.1*36
$GPRMC,003046.000,A,3014.2986,N,11958.1054,E,18.73,157.36,101215,,,A*55
$GPGGA,003047.000,3014.2942,N,11958.1077,E,1,05,1.5,13.2,M,7.0,M,,0000*54
$GPGSA,A,3,05,06,23,09,19,,,,,,,,3.4,1.5,3.1*30
$GPRMC,003047.000,A,3014.2942,N,11958.1077,E,16.60,156.07,101215,,,A*52
$GPGGA,003048.000,3014.2902,N,11958.1098,E,1,05,2.3,13.2,M,7.0,M,,0000*5B
$GPGSA,A,3,05,06,17,09,19,,,,,,,,4.7,2.3,4.1*31
$GPRMC,003048.000,A,3014.2902,N,11958.1098,E,15.80,154.20,101215,,,A*52
$GPGGA,003049.000,3014.2865,N,11958.1116,E,1,06,1.4,12.9,M,7.0,M,,0000*50
$GPGSA,A,3,05,06,23,17,09,19,,,,,,,2.5,1.4,2.1*36
$GPRMC,003049.000,A,3014.2865,N,11958.1116,E,13.85,156.17,101215,,,A*51
$GPGGA,003050.000,3014.2833,N,11958.1131,E,1,06,1.4,12.9,M,7.0,M,,0000*5E
$GPGSA,A,3,05,06,23,17,09,19,,,,,,,2.5,1.4,2.1*36
$GPGSV,3,1,10,17,63,103,43,06,57,342,37,02,34,292,,09,33,107,40*7E
$GPGSV,3,2,10,19,32,117,40,12,23,310,17,23,22,067,46,28,19,179,34*7D
$GPGSV,3,3,10,05,17,221,34,03,03,041,*78
$GPRMC,003050.000,A,3014.2833,N,11958.1131,E,12.56,155.60,101215,,,A*53
$GPGGA,003051.000,3014.2803,N,11958.1146,E,1,06,1.4,12.8,M,7.0,M,,0000*5D
$GPGSA,A,3,05,06,23,17,09,19,,,,,,,2.5,1.4,2.1*36
$GPRMC,003051.000,A,3014.2803,N,11958.1146,E,11.35,154.57,101215,,,A*52
$GPGGA,003052.000,3014.2776,N,11958.1159,E,1,06,1.4,12.6,M,7.0,M,,0000*53
$GPGSA,A,3,05,06,23,17,09,19,,,,,,,2.5,1.4,2.1*36
$GPRMC,003052.000,A,3014.2776,N,11958.1159,E,10.76,154.65,101215,,,A*55
$GPGGA,003053.000,3014.2750,N,11958.1172,E,1,06,1.4,12.4,M,7.0,M,,0000*5D
$GPGSA,A,3,05,06,23,17,09,19,,,,,,,2.5,1.4,2.1*36
$GPRMC,003053.000,A,3014.2750,N,11958.1172,E,9.92,155.66,101215,,,A*69
$GPGGA,003054.000,3014.2726,N,11958.1183,E,1,06,1.4,12.3,M,7.0,M,,0000*52
$GPGSA,A,3,05,06,23,17,09,19,,,,,,,2.5,1.4,2.1*36
$GPRMC,003054.000,A,3014.2726,N,11958.1183,E,9.06,156.29,101215,,,A*64
$GPGGA,003055.000,3014.2705,N,11958.1193,E,1,06,1.4,12.2,M,7.0,M,,0000*52
$GPGSA,A,3,05,06,23,17,09,19,,,,,,,2.5,1.4,2.1*36
$GPGSV,3,1,10,17,63,103,46,06,57,342,42,02,34,292,33,09,33,107,39*77
$GPGSV,3,2,10,19,32,117,40,12,23,310,34,23,22,067,46,28,19,179,33*7B
$GPGSV,3,3,10,05,17,221,37,03,03,041,*7B
$GPRMC,003055.000,A,3014.2705,N,11958.1193,E,8.48,156.30,101215,,,A*66
$GPGGA,003056.000,3014.2683,N,11958.1203,E,1,06,1.4,12.1,M,7.0,M,,0000*57
$GPGSA,A,3,05,06,23,17,09,19,,,,,,,2.5,1.4,2.1*36
$GPRMC,003056.000,A,3014.2683,N,11958.1203,E,8.44,155.94,101215,,,A*61
$GPGGA,003057.000,3014.2662,N,11958.1213,E,1,06,1.4,12.0,M,7.0,M,,0000*59
$GPGSA,A,3,05,06,23,17,09,19,,,,,,,2.5,1.4,2.1*36
$GPRMC,003057.000,A,3014.2662,N,11958.1213,E,8.85,155.44,101215,,,A*6E
$GPGGA,003058.000,3014.2639,N,11958.1225,E,1,06,1.4,11.9,M,7.0,M,,0000*57
$GPGSA,A,3,05,06,23,17,09,19,,,,,,,2.5,1.4,2.1*36
$GPRMC,003058.000,A,3014.2639,N,11958.1225,E,9.71,153.58,101215,,,A*6B
$GPGGA,003059.000,3014.2613,N,11958.1240,E,1,06,1.4,11.8,M,7.0,M,,0000*5C
$GPGSA,A,3,05,06,23,17,09,19,,,,,,,2.5,1.4,2.1*36
$GPRMC,003059.000,A,3014.2613,N,11958.1240,E,10.85,151.45,101215,,,A*5C
$GPGGA,003100.000,3014.2586,N,11958.1257,E,1,06,1.4,11.7,M,7.0,M,,0000*57
$GPGSA,A,3,05,06,23,17,09,19,,,,,,,2.5,1.4,2.1*36
$GPGSV,3,1,10,17,63,103,46,06,57,342,43,02,34,292,33,09,33,107,38*77
$GPGSV,3,2,10,19,32,117,41,12,23,310,35,23,22,067,42,28,19,179,24*79
$GPGSV,3,3,10,05,17,221,37,03,03,041,*7B
$GPRMC,003100.000,A,3014.2586,N,11958.1257,E,11.89,150.00,101215,,,A*55
$GPGGA,003101.000,3014.2556,N,11958.1276,E,1,06,1.4,11.7,M,7.0,M,,0000*58
$GPGSA,A,3,05,06,23,17,09,19,,,,,,,2.5,1.4,2.1*36
$GPRMC,003101.000,A,3014.2556,N,11958.1276,E,12.68,149.99,101215,,,A*5E
$GPGGA,003102.000,3014.2527,N,11958.1300,E,1,06,1.4,12.2,M,7.0,M,,0000*5B
$GPGSA,A,3,05,06,23,17,09,19,,,,,,,2.5,1.4,2.1*36
$GPRMC,003102.000,A,3014.2527,N,11958.1300,E,13.06,143.42,101215,,,A*5E
$GPGGA,003103.000,3014.2497,N,11958.1327,E,1,06,1.4,12.7,M,7.0,M,,0000*50
$GPGSA,A,3,05,06,23,17,09,19,,,,,,,2.5,1.4,2.1*36
$GPRMC,003103.000,A,3014.2497,N,11958.1327,E,13.77,138.86,101215,,,A*52
$GPGGA,003104.000,3014.2468,N,11958.1357,E,1,06,1.4,13.2,M,7.0,M,,0000*54
$GPGSA,A,3,05,06,23,17,09,19,,,,,,,2.5,1.4,2.1*36
$GPRMC,003104.000,A,3014.2468,N,11958.1357,E,14.07,137.97,101215,,,A*5D
$GPGGA,003105.000,3014.2441,N,11958.1390,E,1,06,1.4,14.2,M,7.0,M,,0000*52
$GPGSA,A,3,05,06,23,17,09,19,,,,,,,2.5,1.4,2.1*36
$GPGSV,3,1,10,17,63,103,45,06,57,342,44,02,34,292,33,09,33,107,39*72
$GPGSV,3,2,10,19,32,117,41,12,23,310,34,23,22,067,22,28,19,179,29*73
$GPGSV,3,3,10,05,17,221,25,03,03,041,*78
$GPRMC,003105.000,A,3014.2441,N,11958.1390,E,13.75,138.74,101215,,,A*5C
$GPGGA,003106.000,3014.2414,N,11958.1422,E,1,06,1.4,14.8,M,7.0,M,,0000*55
$GPGSA,A,3,05,06,23,17,09,19,,,,,,,2.5,1.4,2.1*36
$GPRMC,003106.000,A,3014.2414,N,11958.1422,E,13.90,139.50,101215,,,A*5D
$GPGGA,003107.000,3014.2385,N,11958.1456,E,1,06,1.4,15.7,M,7.0,M,,0000*56
$GPGSA,A,3,05,06,23,17,09,19,,,,,,,2.5,1.4,2.1*36
$GPRMC,003107.000,A,3014.2385,N,11958.1456,E,14.95,139.43,101215,,,A*50
$GPGGA,003108.000,3014.2356,N,11958.1492,E,1,06,1.4,16.8,M,7.0,M,,0000*53
$GPGSA,A,3,05,06,23,17,09,19,,,,,,,2.5,1.4,2.1*36
$GPRMC,003108.000,A,3014.2356,N,11958.1492,E,15.37,139.28,101215,,,A*5D
$GPGGA,003109.000,3014.2323,N,11958.1527,E,1,06,1.4,17.7,M,7.0,M,,0000*51
$GPGSA,A,3,05,06,23,17,09,19,,,,,,,2.5,1.4,2.1*36
$GPRMC,003109.000,A,3014.2323,N,11958.1527,E,15.87,137.98,101215,,,A*5F
$GPGGA,003110.000,3014.2290,N,11958.1566,E,1,06,1.4,19.4,M,7.0,M,,0000*58
$GPGSA,A,3,05,06,23,17,09,19,,,,,,,2.5,1.4,2.1*36
$GPGSV,3,1,10,17,63,103,39,06,57,342,44,02,34,292,27,09,33,107,32*77
$GPGSV,3,2,10,19,32,117,34,12,23,310,28,23,22,067,24,28,19,179,21*72
$GPGSV,3,3,10,05,17,221,27,03,03,041,*7A
$GPRMC,003110.000,A,3014.2290,N,11958.1566,E,16.71,135.63,101215,,,A*57
$GPGGA,003111.000,3014.2256,N,11958.1605,E,1,06,1.4,20.1,M,7.0,M,,0000*5A
$GPGSA,A,3,05,06,23,17,09,19,,,,,,,2.5,1.4,2.1*36
$GPRMC,003111.000,A,3014.2256,N,11958.1605,E,17.39,137.06,101215,,,A*56
$GPGGA,003112.000,3014.2218,N,11958.1642,E,1,06,1.3,21.1,M,7.0,M,,0000*56
$GPGSA,A,3,05,06,23,17,09,19,,,,,,,2.5,1.3,2.1*31
$GPRMC,003112.000,A,3014.2218,N,11958.1642,E,17.42,137.44,101215,,,A*56
$GPGGA,003113.000,3014.2182,N,11958.1680,E,1,06,1.3,21.9,M,7.0,M,,0000*51
$GPGSA,A,3,05,06,23,17,09,19,,,,,,,2.5,1.3,2.1*31
$GPRMC,003113.000,A,3014.2182,N,11958.1680,E,17.03,138.59,101215,,,A*5F
$GPGGA,003114.000,3014.2149,N,11958.1717,E,1,06,1.3,22.1,M,7.0,M,,0000*55
$GPGSA,A,3,05,06,23,17,09,19,,,,,,,2.5,1.3,2.1*31
$GPRMC,003114.000,A,3014.2149,N,11958.1717,E,15.71,136.14,101215,,,A*50
$GPGGA,003115.000,3014.2117,N,11958.1750,E,1,06,1.3,22.9,M,7.0,M,,0000*54
$GPGSA,A,3,05,06,23,17,09,19,,,,,,,2.5,1.3,2.1*31
$GPGSV,3,1,10,17,63,103,42,06,57,342,43,02,34,292,27,09,33,107,39*77
$GPGSV,3,2,10,19,32,117,36,12,23,310,30,23,22,067,37,28,19,179,33*78
$GPGSV,3,3,10,05,17,221,25,03,03,041,*78
$GPRMC,003115.000,A,3014.2117,N,11958.1750,E,14.89,134.54,101215,,,A*59
$GPGGA,003116.000,3014.2089,N,11958.1784,E,1,06,1.3,23.5,M,7.0,M,,0000*55
$GPGSA,A,3,05,06,23,17,09,19,,,,,,,2.5,1.3,2.1*31
$GPRMC,003116.000,A,3014.2089,N,11958.1784,E,14.35,131.93,101215,,,A*5C
$GPGGA,003117.000,3014.2067,N,11958.1822,E,1,06,1.3,24.3,M,7.0,M,,0000*56
$GPGSA,A,3,05,06,23,17,09,19,,,,,,,2.5,1.3,2.1*31
$GPRMC,003117.000,A,3014.2067,N,11958.1822,E,13.55,130.27,101215,,,A*51
$GPGGA,003118.000,3014.2044,N,11958.1855,E,1,06,1.3,25.7,M,7.0,M,,0000*5D
$GPGSA,A,3,05,06,23,17,09,19,,,,,,,2.5,1.3,2.1*31
$GPRMC,003118.000,A,3014.2044,N,11958.1855,E,12.36,128.32,101215,,,A*56
$GPGGA,003119.000,3014.2020,N,11958.1878,E,1,06,1.3,25.5,M,7.0,M,,0000*53
$GPGSA,A,3,05,06,23,17,09,19,,,,,,,2.5,1.3,2.1*31
$GPRMC,003119.000,A,3014.2020,N,11958.1878,E,10.68,136.93,101215,,,A*57
$GPGGA,003120.000,3014.1996,N,11958.1895,E,1,06,1.3,25.2,M,7.0,M,,0000*5A
$GPGSA,A,3,05,06,23,17,09,19,,,,,,,2.5,1.3,2.1*31
$GPGSV,3,1,10,17,63,103,42,06,57,342,43,02,34,292,27,09,33,107,39*77
$GPGSV,3,2,10,19,32,117,37,12,23,310,26,23,22,067,28,28,19,179,22*70
$GPGSV,3,3,10,05,17,221,34,03,03,041,*78
$GPRMC,003120.000,A,3014.1996,N,11958.1895,E,9.81,141.09,101215,,,A*65
$GPGGA,003121.000,3014.1974,N,11958.1911,E,1,06,1.3,24.7,M,7.0,M,,0000*5E
$GPGSA,A,3,05,06,23,17,09,19,,,,,,,2.5,1.3,2.1*31
$GPRMC,003121.000,A,3014.1974,N,11958.1911,E,9.11,139.51,101215,,,A*6E
$GPGGA,003122.000,3014.1955,N,11958.1926,E,1,06,1.3,24.1,M,7.0,M,,0000*5C
$GPGSA,A,3,05,06,23,17,09,19,,,,,,,2.5,1.3,2.1*31
$GPRMC,003122.000,A,3014.1955,N,11958.1926,E,8.33,138.67,101215,,,A*6F
$GPGGA,003123.000,3014.1941,N,11958.1943,E,1,06,1.3,24.3,M,7.0,M,,0000*59
$GPGSA,A,3,05,06,23,17,09,19,,,,,,,2.5,1.3,2.1*31
$GPRMC,003123.000,A,3014.1941,N,11958.1943,E,6.70,132.99,101215,,,A*6A
$GPGGA,003124.000,3014.1930,N,11958.1958,E,1,06,1.3,24.7,M,7.0,M,,0000*56
$GPGSA,A,3,05,06,23,17,09,19,,,,,,,2.5,1.3,2.1*31
$GPRMC,003124.000,A,3014.1930,N,11958.1958,E,5.53,129.45,101215,,,A*68
$GPGGA,003125.000,3014.1922,N,11958.1970,E,1,06,1.3,24.6,M,7.0,M,,0000*5F
$GPGSA,A,3,05,06,23,17,09,19,,,,,,,2.5,1.3,2.1*31
$GPGSV,3,1,10,17,63,103,41,06,57,342,43,02,34,292,28,09,33,107,39*7B
$GPGSV,3,2,10,19,32,117,38,12,23,310,33,23,22,067,33,28,19,179,28*7B
$GPGSV,3,3,10,05,17,221,34,03,03,041,*78
$GPRMC,003125.000,A,3014.1922,N,11958.1970,E,4.84,131.73,101215,,,A*67
$GPGGA,003126.000,3014.1913,N,11958.1981,E,1,06,1.3,24.5,M,7.0,M,,0000*53
$GPGSA,A,3,05,06,23,17,09,19,,,,,,,2.5,1.3,2.1*31
$GPRMC,003126.000,A,3014.1913,N,11958.1981,E,4.49,125.55,101215,,,A*68
$GPGGA,003127.000,3014.1906,N,11958.1993,E,1,06,1.3,25.2,M,7.0,M,,0000*53
$GPGSA,A,3,05,06,23,17,09,19,,,,,,,2.5,1.3,2.1*31
$GPRMC,003127.000,A,3014.1906,N,11958.1993,E,4.52,131.06,101215,,,A*67
$GPGGA,003128.000,3014.1899,N,11958.2006,E,1,06,1.3,25.7,M,7.0,M,,0000*58
$GPGSA,A,3,05,06,23,17,09,19,,,,,,,2.5,1.3,2.1*31
$GPRMC,003128.000,A,3014.1899,N,11958.2006,E,5.02,133.51,101215,,,A*6D
$GPGGA,003129.000,3014.1889,N,11958.2018,E,1,06,1.3,26.5,M,7.0,M,,0000*56
$GPGSA,A,3,05,06,23,17,09,19,,,,,,,2.5,1.3,2.1*31
$GPRMC,003129.000,A,3014.1889,N,11958.2018,E,5.44,137.66,101215,,,A*60
$GPGGA,003130.000,3014.1876,N,11958.2033,E,1,06,1.3,27.0,M,7.0,M,,0000*53
$GPGSA,A,3,05,06,23,17,09,19,,,,,,,2.5,1.3,2.1*31
$GPGSV,3,1,10,17,63,103,43,06,57,342,43,02,34,292,29,09,33,107,40*76
$GPGSV,3,2,10,19,32,117,38,12,23,310,33,23,22,067,34,28,19,179,27*73
$GPGSV,3,3,10,05,17,221,25,03,03,041,*78
$GPRMC,003130.000,A,3014.1876,N,11958.2033,E,7.00,138.73,101215,,,A*68
$GPGGA,003131.000,3014.1861,N,11958.2051,E,1,06,1.3,27.4,M,7.0,M,,0000*54
$GPGSA,A,3,05,06,23,17,09,19,,,,,,,2.5,1.3,2.1*31
$GPRMC,003131.000,A,3014.1861,N,11958.2051,E,8.73,139.12,101215,,,A*66
$GPGGA,003132.000,3014.1843,N,11958.2075,E,1,06,1.3,27.8,M,7.0,M,,0000*5D
$GPGSA,A,3,05,06,23,17,09,19,,,,,,,2.5,1.3,2.1*31
$GPRMC,003132.000,A,3014.1843,N,11958.2075,E,10.82,137.71,101215,,,A*5F
$GPGGA,003133.000,3014.1820,N,11958.2101,E,1,06,1.3,28.0,M,7.0,M,,0000*5C
$GPGSA,A,3,05,06,23,17,09,19,,,,,,,2.5,1.3,2.1*31
$GPRMC,003133.000,A,3014.1820,N,11958.2101,E,12.31,142.01,101215,,,A*56
$GPGGA,003134.000,3014.1795,N,11958.2131,E,1,06,1.3,28.5,M,7.0,M,,0000*5C
$GPGSA,A,3,05,06,23,17,09,19,,,,,,,2.5,1.3,2.1*31
$GPRMC,003134.000,A,3014.1795,N,11958.2131,E,13.23,135.67,101215,,,A*51
$GPGGA,003135.000,3014.1769,N,11958.2162,E,1,06,1.3,28.9,M,7.0,M,,0000*54
$GPGSA,A,3,05,06,23,17,09,19,,,,,,,2.5,1.3,2.1*31
$GPGSV,3,1,10,17,63,103,42,06,57,342,43,02,34,292,29,09,33,107,40*77
$GPGSV,3,2,10,19,32,117,38,12,23,310,33,23,22,067,34,28,19,179,24*70
$GPGSV,3,3,10,05,17,221,24,03,03,041,*79
$GPRMC,003135.000,A,3014.1769,N,11958.2162,E,13.50,134.88,101215,,,A*51
$GPGGA,003136.000,3014.1744,N,11958.2195,E,1,06,1.3,29.4,M,7.0,M,,0000*5C
$GPGSA,A,3,05,06,23,17,09,19,,,,,,,2.5,1.3,2.1*31
$GPRMC,003136.000,A,3014.1744,N,11958.2195,E,13.36,136.61,101215,,,A*50
$GPGGA,003137.000,3014.1717,N,11958.2224,E,1,06,1.3,29.4,M,7.0,M,,0000*52
$GPGSA,A,3,05,06,23,17,09,19,,,,,,,2.5,1.3,2.1*31
$GPRMC,003137.000,A,3014.1717,N,11958.2224,E,13.37,137.50,101215,,,A*5C
